{
"type": "FeatureCollection",
"crs": { "type": "name", "properties": { "name": "urn:ogc:def:crs:OGC:1.3:CRS84" } },
"features": [
{ "type": "Feature", "properties": { "id": 27096008, "name": "Орёл" }, "geometry": { "type": "Point", "coordinates": [ 36.0642127, 52.9709262 ] } },
{ "type": "Feature", "properties": { "id": 310173070, "name": "Кромы" }, "geometry": { "type": "Point", "coordinates": [ 35.7736585, 52.6894445 ] } },
{ "type": "Feature", "properties": { "id": 336140167, "name": "Красная Заря" }, "geometry": { "type": "Point", "coordinates": [ 37.690243, 52.780712 ] } },
{ "type": "Feature", "properties": { "id": 336140200, "name": "Змиёвка" }, "geometry": { "type": "Point", "coordinates": [ 36.3730739, 52.6671693 ] } },
{ "type": "Feature", "properties": { "id": 336140258, "name": "Дмитровск" }, "geometry": { "type": "Point", "coordinates": [ 35.145725, 52.509418 ] } },
{ "type": "Feature", "properties": { "id": 336140287, "name": "Ливны" }, "geometry": { "type": "Point", "coordinates": [ 37.6089, 52.4253859 ] } },
{ "type": "Feature", "properties": { "id": 336140301, "name": "Тросна" }, "geometry": { "type": "Point", "coordinates": [ 35.780979, 52.448105 ] } },
{ "type": "Feature", "properties": { "id": 336140305, "name": "Малоархангельск" }, "geometry": { "type": "Point", "coordinates": [ 36.5094712, 52.4007694 ] } },
{ "type": "Feature", "properties": { "id": 336140362, "name": "Колпна" }, "geometry": { "type": "Point", "coordinates": [ 37.028606, 52.222736 ] } },
{ "type": "Feature", "properties": { "id": 336140383, "name": "Долгое" }, "geometry": { "type": "Point", "coordinates": [ 37.5295749, 52.0552637 ] } },
{ "type": "Feature", "properties": { "id": 336306573, "name": "Новосиль" }, "geometry": { "type": "Point", "coordinates": [ 37.041908, 52.972939 ] } },
{ "type": "Feature", "properties": { "id": 336306575, "name": "Нарышкино" }, "geometry": { "type": "Point", "coordinates": [ 35.7299793, 52.9654599 ] } },
{ "type": "Feature", "properties": { "id": 336306590, "name": "Мценск" }, "geometry": { "type": "Point", "coordinates": [ 36.576077, 53.278984 ] } },
{ "type": "Feature", "properties": { "id": 336306596, "name": "Верховье" }, "geometry": { "type": "Point", "coordinates": [ 37.23908, 52.81056 ] } },
{ "type": "Feature", "properties": { "id": 336306598, "name": "Хомутово" }, "geometry": { "type": "Point", "coordinates": [ 37.446629, 52.854115 ] } },
{ "type": "Feature", "properties": { "id": 383716381, "name": "Знаменка" }, "geometry": { "type": "Point", "coordinates": [ 35.986679, 52.89608 ] } },
{ "type": "Feature", "properties": { "id": 410919506, "name": "Хотынец" }, "geometry": { "type": "Point", "coordinates": [ 35.398, 53.1266 ] } },
{ "type": "Feature", "properties": { "id": 414709086, "name": "Залегощь" }, "geometry": { "type": "Point", "coordinates": [ 36.893154, 52.90242 ] } },
{ "type": "Feature", "properties": { "id": 465247374, "name": "Покровское" }, "geometry": { "type": "Point", "coordinates": [ 36.866261, 52.607849 ] } },
{ "type": "Feature", "properties": { "id": 1006266644, "name": "Шаблыкино" }, "geometry": { "type": "Point", "coordinates": [ 35.195244, 52.853958 ] } },
{ "type": "Feature", "properties": { "id": 1026627257, "name": "Корсаково" }, "geometry": { "type": "Point", "coordinates": [ 37.358795, 53.266396 ] } },
{ "type": "Feature", "properties": { "id": 1141132897, "name": "Болхов" }, "geometry": { "type": "Point", "coordinates": [ 36.002232, 53.448994 ] } },
{ "type": "Feature", "properties": { "id": 1444504020, "name": "Глазуновка" }, "geometry": { "type": "Point", "coordinates": [ 36.322838, 52.499466 ] } }
]
}
