{
"type": "FeatureCollection",
"crs": { "type": "name", "properties": { "name": "urn:ogc:def:crs:OGC:1.3:CRS84" } },
"features": [
{ "type": "Feature", "properties": { "id": 26901966, "name": "Северодвинск" }, "geometry": { "type": "Point", "coordinates": [ 39.823769, 64.563385 ] } },
{ "type": "Feature", "properties": { "id": 26925161, "name": "Мезень" }, "geometry": { "type": "Point", "coordinates": [ 44.244141, 65.843956 ] } },
{ "type": "Feature", "properties": { "id": 26952234, "name": "Каргополь" }, "geometry": { "type": "Point", "coordinates": [ 38.940796, 61.509121 ] } },
{ "type": "Feature", "properties": { "id": 26958524, "name": "Вельск" }, "geometry": { "type": "Point", "coordinates": [ 42.0979582, 61.0756446 ] } },
{ "type": "Feature", "properties": { "id": 251471563, "name": "Новодвинск" }, "geometry": { "type": "Point", "coordinates": [ 40.793793, 64.419212 ] } },
{ "type": "Feature", "properties": { "id": 276628719, "name": "Архангельск" }, "geometry": { "type": "Point", "coordinates": [ 40.537121, 64.543022 ] } },
{ "type": "Feature", "properties": { "id": 279013780, "name": "Няндома" }, "geometry": { "type": "Point", "coordinates": [ 40.1970404, 61.6612985 ] } },
{ "type": "Feature", "properties": { "id": 331769948, "name": "Ильинско-Подомское" }, "geometry": { "type": "Point", "coordinates": [ 47.97831, 61.115704 ] } },
{ "type": "Feature", "properties": { "id": 335978419, "name": "Верхняя Тойма" }, "geometry": { "type": "Point", "coordinates": [ 45.0007897, 62.2353641 ] } },
{ "type": "Feature", "properties": { "id": 335978456, "name": "Красноборск" }, "geometry": { "type": "Point", "coordinates": [ 45.934135, 61.556374 ] } },
{ "type": "Feature", "properties": { "id": 335978471, "name": "Вычегодский" }, "geometry": { "type": "Point", "coordinates": [ 46.883759, 61.248669 ] } },
{ "type": "Feature", "properties": { "id": 335978473, "name": "Коряжма" }, "geometry": { "type": "Point", "coordinates": [ 47.1607291, 61.3152522 ] } },
{ "type": "Feature", "properties": { "id": 335978476, "name": "Сольвычегодск" }, "geometry": { "type": "Point", "coordinates": [ 46.918938, 61.331333 ] } },
{ "type": "Feature", "properties": { "id": 335978520, "name": "Коноша" }, "geometry": { "type": "Point", "coordinates": [ 40.25671, 60.973812 ] } },
{ "type": "Feature", "properties": { "id": 339521197, "name": "Котлас" }, "geometry": { "type": "Point", "coordinates": [ 46.647629, 61.252151 ] } },
{ "type": "Feature", "properties": { "id": 339721176, "name": "Мирный" }, "geometry": { "type": "Point", "coordinates": [ 40.328644, 62.762352 ] } },
{ "type": "Feature", "properties": { "id": 864596117, "name": "Лешуконское" }, "geometry": { "type": "Point", "coordinates": [ 45.767242, 64.902481 ] } },
{ "type": "Feature", "properties": { "id": 881292373, "name": "Яренск" }, "geometry": { "type": "Point", "coordinates": [ 49.088966, 62.172482 ] } },
{ "type": "Feature", "properties": { "id": 1028724218, "name": "Холмогоры" }, "geometry": { "type": "Point", "coordinates": [ 41.6512435, 64.2270008 ] } },
{ "type": "Feature", "properties": { "id": 1048709876, "name": "Белушья Губа" }, "geometry": { "type": "Point", "coordinates": [ 52.3427343, 71.5376984 ] } },
{ "type": "Feature", "properties": { "id": 1050101941, "name": "Березник" }, "geometry": { "type": "Point", "coordinates": [ 42.710133, 62.855541 ] } },
{ "type": "Feature", "properties": { "id": 1066435579, "name": "Пинега" }, "geometry": { "type": "Point", "coordinates": [ 43.392376, 64.697281 ] } },
{ "type": "Feature", "properties": { "id": 1104779161, "name": "Емецк" }, "geometry": { "type": "Point", "coordinates": [ 41.779667, 63.475128 ] } },
{ "type": "Feature", "properties": { "id": 1117531756, "name": "Савинский" }, "geometry": { "type": "Point", "coordinates": [ 40.136101, 62.934219 ] } },
{ "type": "Feature", "properties": { "id": 1404369898, "name": "Плесецк" }, "geometry": { "type": "Point", "coordinates": [ 40.2843885, 62.709524 ] } },
{ "type": "Feature", "properties": { "id": 1467409448, "name": "Шенкурск" }, "geometry": { "type": "Point", "coordinates": [ 42.9076435, 62.1059279 ] } },
{ "type": "Feature", "properties": { "id": 1519706100, "name": "Онега" }, "geometry": { "type": "Point", "coordinates": [ 38.094822, 63.911644 ] } },
{ "type": "Feature", "properties": { "id": 2134995009, "name": "Карпогоры" }, "geometry": { "type": "Point", "coordinates": [ 44.442722, 64.001808 ] } },
{ "type": "Feature", "properties": { "id": 2598820341, "name": "Октябрьский" }, "geometry": { "type": "Point", "coordinates": [ 43.171482, 61.090485 ] } }
]
}
