{
"type": "FeatureCollection",
"crs": { "type": "name", "properties": { "name": "urn:ogc:def:crs:OGC:1.3:CRS84" } },
"features": [
{ "type": "Feature", "properties": { "id": 27505129, "name": "Краснодар" }, "geometry": { "type": "Point", "coordinates": [ 38.9772396, 45.0351532 ] } },
{ "type": "Feature", "properties": { "id": 29750243, "name": "Славянск-на-Кубани" }, "geometry": { "type": "Point", "coordinates": [ 38.1244609, 45.2590875 ] } },
{ "type": "Feature", "properties": { "id": 29751525, "name": "Темрюк" }, "geometry": { "type": "Point", "coordinates": [ 37.3905481, 45.2751663 ] } },
{ "type": "Feature", "properties": { "id": 29804102, "name": "Анапа" }, "geometry": { "type": "Point", "coordinates": [ 37.316887, 44.894272 ] } },
{ "type": "Feature", "properties": { "id": 29866496, "name": "Приморско-Ахтарск" }, "geometry": { "type": "Point", "coordinates": [ 38.1554803, 46.043181 ] } },
{ "type": "Feature", "properties": { "id": 29866526, "name": "Ейск" }, "geometry": { "type": "Point", "coordinates": [ 38.2747987, 46.7112094 ] } },
{ "type": "Feature", "properties": { "id": 34043670, "name": "Сочи" }, "geometry": { "type": "Point", "coordinates": [ 39.723109, 43.5854823 ] } },
{ "type": "Feature", "properties": { "id": 34181150, "name": "Геленджик" }, "geometry": { "type": "Point", "coordinates": [ 38.0766832, 44.5609447 ] } },
{ "type": "Feature", "properties": { "id": 34181855, "name": "Кабардинка" }, "geometry": { "type": "Point", "coordinates": [ 37.9395292, 44.6515718 ] } },
{ "type": "Feature", "properties": { "id": 36722707, "name": "Горячий Ключ" }, "geometry": { "type": "Point", "coordinates": [ 39.1363613, 44.6342653 ] } },
{ "type": "Feature", "properties": { "id": 36722824, "name": "Туапсе" }, "geometry": { "type": "Point", "coordinates": [ 39.0718875, 44.0984747 ] } },
{ "type": "Feature", "properties": { "id": 87705691, "name": "Новороссийск" }, "geometry": { "type": "Point", "coordinates": [ 37.7690711, 44.7239578 ] } },
{ "type": "Feature", "properties": { "id": 191824980, "name": "Армавир" }, "geometry": { "type": "Point", "coordinates": [ 41.1294061, 44.9993585 ] } },
{ "type": "Feature", "properties": { "id": 253814474, "name": "Тимашёвск" }, "geometry": { "type": "Point", "coordinates": [ 38.9357743, 45.6129685 ] } },
{ "type": "Feature", "properties": { "id": 270691553, "name": "Павловская" }, "geometry": { "type": "Point", "coordinates": [ 39.783, 46.1352 ] } },
{ "type": "Feature", "properties": { "id": 277678134, "name": "Витязево" }, "geometry": { "type": "Point", "coordinates": [ 37.2607195, 44.9897066 ] } },
{ "type": "Feature", "properties": { "id": 290905151, "name": "Джубга" }, "geometry": { "type": "Point", "coordinates": [ 38.7043664, 44.3170538 ] } },
{ "type": "Feature", "properties": { "id": 290911788, "name": "Дагомыс" }, "geometry": { "type": "Point", "coordinates": [ 39.6544373, 43.6590048 ] } },
{ "type": "Feature", "properties": { "id": 295381557, "name": "Усть-Лабинск" }, "geometry": { "type": "Point", "coordinates": [ 39.6896725, 45.2178027 ] } },
{ "type": "Feature", "properties": { "id": 295384821, "name": "Васюринская" }, "geometry": { "type": "Point", "coordinates": [ 39.4200463, 45.1183262 ] } },
{ "type": "Feature", "properties": { "id": 295385084, "name": "Воронежская" }, "geometry": { "type": "Point", "coordinates": [ 39.5670828, 45.2120476 ] } },
{ "type": "Feature", "properties": { "id": 295385847, "name": "Пластуновская" }, "geometry": { "type": "Point", "coordinates": [ 39.2662799, 45.2962422 ] } },
{ "type": "Feature", "properties": { "id": 295386031, "name": "Платнировская" }, "geometry": { "type": "Point", "coordinates": [ 39.3903857, 45.391981 ] } },
{ "type": "Feature", "properties": { "id": 295729620, "name": "Елизаветинская" }, "geometry": { "type": "Point", "coordinates": [ 38.7928963, 45.0480573 ] } },
{ "type": "Feature", "properties": { "id": 295730787, "name": "Новомышастовская" }, "geometry": { "type": "Point", "coordinates": [ 38.5795212, 45.1987319 ] } },
{ "type": "Feature", "properties": { "id": 295754500, "name": "Динская" }, "geometry": { "type": "Point", "coordinates": [ 39.2249757, 45.2168713 ] } },
{ "type": "Feature", "properties": { "id": 296161951, "name": "Белореченск" }, "geometry": { "type": "Point", "coordinates": [ 39.8712943, 44.7614149 ] } },
{ "type": "Feature", "properties": { "id": 296346416, "name": "Выселки" }, "geometry": { "type": "Point", "coordinates": [ 39.6574237, 45.5806221 ] } },
{ "type": "Feature", "properties": { "id": 296376882, "name": "Афипский" }, "geometry": { "type": "Point", "coordinates": [ 38.8426821, 44.9040435 ] } },
{ "type": "Feature", "properties": { "id": 296376924, "name": "Северская" }, "geometry": { "type": "Point", "coordinates": [ 38.6781253, 44.853421 ] } },
{ "type": "Feature", "properties": { "id": 296379510, "name": "Ильский" }, "geometry": { "type": "Point", "coordinates": [ 38.5702615, 44.854575 ] } },
{ "type": "Feature", "properties": { "id": 296379511, "name": "Крымск" }, "geometry": { "type": "Point", "coordinates": [ 37.9880177, 44.9295889 ] } },
{ "type": "Feature", "properties": { "id": 296537017, "name": "Курганинск" }, "geometry": { "type": "Point", "coordinates": [ 40.5894674, 44.8851635 ] } },
{ "type": "Feature", "properties": { "id": 296884989, "name": "Калининская" }, "geometry": { "type": "Point", "coordinates": [ 38.6598137, 45.4856626 ] } },
{ "type": "Feature", "properties": { "id": 296886272, "name": "Брюховецкая" }, "geometry": { "type": "Point", "coordinates": [ 39.0003034, 45.8006166 ] } },
{ "type": "Feature", "properties": { "id": 296886273, "name": "Переясловская" }, "geometry": { "type": "Point", "coordinates": [ 39.021858, 45.844673 ] } },
{ "type": "Feature", "properties": { "id": 296886274, "name": "Каневская" }, "geometry": { "type": "Point", "coordinates": [ 38.9721929, 46.0845999 ] } },
{ "type": "Feature", "properties": { "id": 296886275, "name": "Стародеревянковская" }, "geometry": { "type": "Point", "coordinates": [ 38.9713729, 46.1277738 ] } },
{ "type": "Feature", "properties": { "id": 296937624, "name": "Варениковская" }, "geometry": { "type": "Point", "coordinates": [ 37.638737, 45.121292 ] } },
{ "type": "Feature", "properties": { "id": 296992985, "name": "Старотитаровская" }, "geometry": { "type": "Point", "coordinates": [ 37.1480059, 45.2188185 ] } },
{ "type": "Feature", "properties": { "id": 297082357, "name": "Тбилисская" }, "geometry": { "type": "Point", "coordinates": [ 40.1898342, 45.3635681 ] } },
{ "type": "Feature", "properties": { "id": 297082471, "name": "Ладожская" }, "geometry": { "type": "Point", "coordinates": [ 39.9268511, 45.3076593 ] } },
{ "type": "Feature", "properties": { "id": 297851423, "name": "Медвёдовская" }, "geometry": { "type": "Point", "coordinates": [ 39.0167858, 45.4525812 ] } },
{ "type": "Feature", "properties": { "id": 297958919, "name": "Холмская" }, "geometry": { "type": "Point", "coordinates": [ 38.3950178, 44.8432658 ] } },
{ "type": "Feature", "properties": { "id": 297958920, "name": "Ахтырский" }, "geometry": { "type": "Point", "coordinates": [ 38.2941737, 44.8559341 ] } },
{ "type": "Feature", "properties": { "id": 297958924, "name": "Абинск" }, "geometry": { "type": "Point", "coordinates": [ 38.1578189, 44.8649528 ] } },
{ "type": "Feature", "properties": { "id": 298061350, "name": "Старощербиновская" }, "geometry": { "type": "Point", "coordinates": [ 38.6624971, 46.6284506 ] } },
{ "type": "Feature", "properties": { "id": 298080404, "name": "Новотитаровская" }, "geometry": { "type": "Point", "coordinates": [ 38.9712606, 45.2360889 ] } },
{ "type": "Feature", "properties": { "id": 298352406, "name": "Апшеронск" }, "geometry": { "type": "Point", "coordinates": [ 39.741048, 44.4618046 ] } },
{ "type": "Feature", "properties": { "id": 298364538, "name": "Тихорецк" }, "geometry": { "type": "Point", "coordinates": [ 40.128124, 45.854679 ] } },
{ "type": "Feature", "properties": { "id": 298761165, "name": "Роговская" }, "geometry": { "type": "Point", "coordinates": [ 38.739555, 45.734535 ] } },
{ "type": "Feature", "properties": { "id": 301489268, "name": "Новопокровская" }, "geometry": { "type": "Point", "coordinates": [ 40.707203, 45.953815 ] } },
{ "type": "Feature", "properties": { "id": 301490224, "name": "Белая Глина" }, "geometry": { "type": "Point", "coordinates": [ 40.863701, 46.078419 ] } },
{ "type": "Feature", "properties": { "id": 301491695, "name": "Архангельская" }, "geometry": { "type": "Point", "coordinates": [ 40.2796117, 45.6725524 ] } },
{ "type": "Feature", "properties": { "id": 301586748, "name": "Нижнебаканская" }, "geometry": { "type": "Point", "coordinates": [ 37.8608578, 44.8646355 ] } },
{ "type": "Feature", "properties": { "id": 301586752, "name": "Анапская" }, "geometry": { "type": "Point", "coordinates": [ 37.3832216, 44.9002856 ] } },
{ "type": "Feature", "properties": { "id": 303232160, "name": "Псебай" }, "geometry": { "type": "Point", "coordinates": [ 40.7902989, 44.1092655 ] } },
{ "type": "Feature", "properties": { "id": 304718444, "name": "Лабинск" }, "geometry": { "type": "Point", "coordinates": [ 40.7242185, 44.6347953 ] } },
{ "type": "Feature", "properties": { "id": 304718565, "name": "Мостовской" }, "geometry": { "type": "Point", "coordinates": [ 40.7899446, 44.4138041 ] } },
{ "type": "Feature", "properties": { "id": 343427807, "name": "Архипо-Осиповка" }, "geometry": { "type": "Point", "coordinates": [ 38.533611, 44.3703184 ] } },
{ "type": "Feature", "properties": { "id": 346169276, "name": "Новомихайловский" }, "geometry": { "type": "Point", "coordinates": [ 38.8447977, 44.2533593 ] } },
{ "type": "Feature", "properties": { "id": 346174364, "name": "Нефтегорск" }, "geometry": { "type": "Point", "coordinates": [ 39.7034985, 44.3555651 ] } },
{ "type": "Feature", "properties": { "id": 356773068, "name": "Крыловская" }, "geometry": { "type": "Point", "coordinates": [ 39.962914, 46.321865 ] } },
{ "type": "Feature", "properties": { "id": 356773072, "name": "Ленинградская" }, "geometry": { "type": "Point", "coordinates": [ 39.389554, 46.3212449 ] } },
{ "type": "Feature", "properties": { "id": 356773076, "name": "Новоминская" }, "geometry": { "type": "Point", "coordinates": [ 38.955532, 46.317478 ] } },
{ "type": "Feature", "properties": { "id": 356773132, "name": "Кущёвская" }, "geometry": { "type": "Point", "coordinates": [ 39.6273712, 46.5650084 ] } },
{ "type": "Feature", "properties": { "id": 356773141, "name": "Староминская" }, "geometry": { "type": "Point", "coordinates": [ 39.0625056, 46.5359488 ] } },
{ "type": "Feature", "properties": { "id": 356773196, "name": "Михайловская" }, "geometry": { "type": "Point", "coordinates": [ 40.5999124, 44.990738 ] } },
{ "type": "Feature", "properties": { "id": 356773286, "name": "Фастовецкая" }, "geometry": { "type": "Point", "coordinates": [ 40.154659, 45.917324 ] } },
{ "type": "Feature", "properties": { "id": 356773391, "name": "Казанская" }, "geometry": { "type": "Point", "coordinates": [ 40.4406018, 45.4074844 ] } },
{ "type": "Feature", "properties": { "id": 356773418, "name": "Кавказская" }, "geometry": { "type": "Point", "coordinates": [ 40.6697566, 45.4393405 ] } },
{ "type": "Feature", "properties": { "id": 356773423, "name": "Петровская" }, "geometry": { "type": "Point", "coordinates": [ 37.956711, 45.430317 ] } },
{ "type": "Feature", "properties": { "id": 356773465, "name": "Новокубанск" }, "geometry": { "type": "Point", "coordinates": [ 41.0366896, 45.1083184 ] } },
{ "type": "Feature", "properties": { "id": 356773588, "name": "Гулькевичи" }, "geometry": { "type": "Point", "coordinates": [ 40.6962256, 45.3565119 ] } },
{ "type": "Feature", "properties": { "id": 367115147, "name": "Советская" }, "geometry": { "type": "Point", "coordinates": [ 41.1711179, 44.7836633 ] } },
{ "type": "Feature", "properties": { "id": 477458866, "name": "Тамань" }, "geometry": { "type": "Point", "coordinates": [ 36.7191326, 45.2158646 ] } },
{ "type": "Feature", "properties": { "id": 587677249, "name": "Марьянская" }, "geometry": { "type": "Point", "coordinates": [ 38.6367903, 45.0991226 ] } },
{ "type": "Feature", "properties": { "id": 638263068, "name": "Октябрьская" }, "geometry": { "type": "Point", "coordinates": [ 39.8102996, 46.2837923 ] } },
{ "type": "Feature", "properties": { "id": 645000171, "name": "Красносельский" }, "geometry": { "type": "Point", "coordinates": [ 40.598473, 45.3934779 ] } },
{ "type": "Feature", "properties": { "id": 653145095, "name": "Успенское" }, "geometry": { "type": "Point", "coordinates": [ 41.3850485, 44.8346548 ] } },
{ "type": "Feature", "properties": { "id": 679083798, "name": "Коноково" }, "geometry": { "type": "Point", "coordinates": [ 41.325343, 44.8617355 ] } },
{ "type": "Feature", "properties": { "id": 789338328, "name": "Черноморский" }, "geometry": { "type": "Point", "coordinates": [ 38.4944065, 44.849996 ] } },
{ "type": "Feature", "properties": { "id": 927877934, "name": "Родниковская" }, "geometry": { "type": "Point", "coordinates": [ 40.6579706, 44.7685255 ] } },
{ "type": "Feature", "properties": { "id": 1123091817, "name": "Отрадная" }, "geometry": { "type": "Point", "coordinates": [ 41.5263169, 44.3975687 ] } },
{ "type": "Feature", "properties": { "id": 1645221793, "name": "Кропоткин" }, "geometry": { "type": "Point", "coordinates": [ 40.5750274, 45.4344413 ] } },
{ "type": "Feature", "properties": { "id": 1845838485, "name": "Кореновск" }, "geometry": { "type": "Point", "coordinates": [ 39.4487565, 45.4635863 ] } },
{ "type": "Feature", "properties": { "id": 1870663696, "name": "Старокорсунская" }, "geometry": { "type": "Point", "coordinates": [ 39.3130266, 45.0506551 ] } },
{ "type": "Feature", "properties": { "id": 1886342079, "name": "Хадыженск" }, "geometry": { "type": "Point", "coordinates": [ 39.5369484, 44.4231032 ] } },
{ "type": "Feature", "properties": { "id": 2004839274, "name": "Гирей" }, "geometry": { "type": "Point", "coordinates": [ 40.6581862, 45.4024641 ] } },
{ "type": "Feature", "properties": { "id": 2007195607, "name": "Владимирская" }, "geometry": { "type": "Point", "coordinates": [ 40.8043345, 44.5446631 ] } },
{ "type": "Feature", "properties": { "id": 2034381166, "name": "Старомышастовская" }, "geometry": { "type": "Point", "coordinates": [ 39.0729692, 45.3419471 ] } },
{ "type": "Feature", "properties": { "id": 2146337212, "name": "Гостагаевская" }, "geometry": { "type": "Point", "coordinates": [ 37.502266, 45.024044 ] } },
{ "type": "Feature", "properties": { "id": 2146393965, "name": "Нововеличковская" }, "geometry": { "type": "Point", "coordinates": [ 38.8377083, 45.2787805 ] } },
{ "type": "Feature", "properties": { "id": 2148629143, "name": "Ивановская" }, "geometry": { "type": "Point", "coordinates": [ 38.4653294, 45.2672191 ] } },
{ "type": "Feature", "properties": { "id": 2439086179, "name": "Старая Станица" }, "geometry": { "type": "Point", "coordinates": [ 41.1490284, 45.0143064 ] } },
{ "type": "Feature", "properties": { "id": 5331358171, "name": "Красная Поляна" }, "geometry": { "type": "Point", "coordinates": [ 40.2069574, 43.6779574 ] } },
{ "type": "Feature", "properties": { "id": 5618896828, "name": "Полтавская" }, "geometry": { "type": "Point", "coordinates": [ 38.2115057, 45.366794 ] } },
{ "type": "Feature", "properties": { "id": 8097262896, "name": "Сириус" }, "geometry": { "type": "Point", "coordinates": [ 39.954483, 43.406418 ] } }
]
}
