{
"type": "FeatureCollection",
"crs": { "type": "name", "properties": { "name": "urn:ogc:def:crs:OGC:1.3:CRS84" } },
"features": [
{ "type": "Feature", "properties": { "id": 29980667, "name": "Таганрог" }, "geometry": { "type": "Point", "coordinates": [ 38.9285216, 47.2153657 ] } },
{ "type": "Feature", "properties": { "id": 160569651, "name": "Ростов-на-Дону" }, "geometry": { "type": "Point", "coordinates": [ 39.7096061, 47.2216548 ] } },
{ "type": "Feature", "properties": { "id": 191771467, "name": "Шахты" }, "geometry": { "type": "Point", "coordinates": [ 40.2154859, 47.7094622 ] } },
{ "type": "Feature", "properties": { "id": 191846117, "name": "Новочеркасск" }, "geometry": { "type": "Point", "coordinates": [ 40.101986, 47.41066 ] } },
{ "type": "Feature", "properties": { "id": 191851580, "name": "Волгодонск" }, "geometry": { "type": "Point", "coordinates": [ 42.1525935, 47.5182668 ] } },
{ "type": "Feature", "properties": { "id": 191889906, "name": "Новошахтинск" }, "geometry": { "type": "Point", "coordinates": [ 39.9347532, 47.7542512 ] } },
{ "type": "Feature", "properties": { "id": 283030477, "name": "Азов" }, "geometry": { "type": "Point", "coordinates": [ 39.4259657, 47.1139219 ] } },
{ "type": "Feature", "properties": { "id": 287039558, "name": "Сальск" }, "geometry": { "type": "Point", "coordinates": [ 41.541008, 46.476669 ] } },
{ "type": "Feature", "properties": { "id": 287040070, "name": "Зимовники" }, "geometry": { "type": "Point", "coordinates": [ 42.46497, 47.148918 ] } },
{ "type": "Feature", "properties": { "id": 332370326, "name": "Миллерово" }, "geometry": { "type": "Point", "coordinates": [ 40.391854, 48.9196264 ] } },
{ "type": "Feature", "properties": { "id": 332371008, "name": "Тарасовский" }, "geometry": { "type": "Point", "coordinates": [ 40.3554416, 48.727145 ] } },
{ "type": "Feature", "properties": { "id": 332371503, "name": "Глубокий" }, "geometry": { "type": "Point", "coordinates": [ 40.3261435, 48.5245462 ] } },
{ "type": "Feature", "properties": { "id": 332371954, "name": "Каменск-Шахтинский" }, "geometry": { "type": "Point", "coordinates": [ 40.2650679, 48.3210807 ] } },
{ "type": "Feature", "properties": { "id": 339961651, "name": "Багаевская" }, "geometry": { "type": "Point", "coordinates": [ 40.382904, 47.321434 ] } },
{ "type": "Feature", "properties": { "id": 339980655, "name": "Усть-Донецкий" }, "geometry": { "type": "Point", "coordinates": [ 40.868748, 47.640224 ] } },
{ "type": "Feature", "properties": { "id": 339986600, "name": "Константиновск" }, "geometry": { "type": "Point", "coordinates": [ 41.097084, 47.582352 ] } },
{ "type": "Feature", "properties": { "id": 346915853, "name": "Белая Калитва" }, "geometry": { "type": "Point", "coordinates": [ 40.7902124, 48.1751778 ] } },
{ "type": "Feature", "properties": { "id": 356772271, "name": "Вёшенская" }, "geometry": { "type": "Point", "coordinates": [ 41.725105, 49.628994 ] } },
{ "type": "Feature", "properties": { "id": 356772503, "name": "Чертково" }, "geometry": { "type": "Point", "coordinates": [ 40.1491516, 49.3799788 ] } },
{ "type": "Feature", "properties": { "id": 356772546, "name": "Обливская" }, "geometry": { "type": "Point", "coordinates": [ 42.5014974, 48.5359734 ] } },
{ "type": "Feature", "properties": { "id": 356772614, "name": "Гуково" }, "geometry": { "type": "Point", "coordinates": [ 39.9441925, 48.0530303 ] } },
{ "type": "Feature", "properties": { "id": 356772622, "name": "Жирнов" }, "geometry": { "type": "Point", "coordinates": [ 41.123734, 48.16938 ] } },
{ "type": "Feature", "properties": { "id": 356772629, "name": "Тацинская" }, "geometry": { "type": "Point", "coordinates": [ 41.280865, 48.193871 ] } },
{ "type": "Feature", "properties": { "id": 356772687, "name": "Морозовск" }, "geometry": { "type": "Point", "coordinates": [ 41.828762, 48.352379 ] } },
{ "type": "Feature", "properties": { "id": 356772744, "name": "Матвеев Курган" }, "geometry": { "type": "Point", "coordinates": [ 38.861942, 47.568459 ] } },
{ "type": "Feature", "properties": { "id": 356772759, "name": "Родионово-Несветайская" }, "geometry": { "type": "Point", "coordinates": [ 39.7012529, 47.6135406 ] } },
{ "type": "Feature", "properties": { "id": 356772845, "name": "Самарское" }, "geometry": { "type": "Point", "coordinates": [ 39.690975, 46.937504 ] } },
{ "type": "Feature", "properties": { "id": 356772865, "name": "Красный Сулин" }, "geometry": { "type": "Point", "coordinates": [ 40.0580434, 47.8932048 ] } },
{ "type": "Feature", "properties": { "id": 356772892, "name": "Аксай" }, "geometry": { "type": "Point", "coordinates": [ 39.861362, 47.268696 ] } },
{ "type": "Feature", "properties": { "id": 356772919, "name": "Кулешовка" }, "geometry": { "type": "Point", "coordinates": [ 39.55418, 47.07658 ] } },
{ "type": "Feature", "properties": { "id": 356772933, "name": "Весёлый" }, "geometry": { "type": "Point", "coordinates": [ 40.7415457, 47.0918158 ] } },
{ "type": "Feature", "properties": { "id": 356772948, "name": "Покровское" }, "geometry": { "type": "Point", "coordinates": [ 38.896759, 47.41428 ] } },
{ "type": "Feature", "properties": { "id": 356772951, "name": "Дубовское" }, "geometry": { "type": "Point", "coordinates": [ 42.764225, 47.411167 ] } },
{ "type": "Feature", "properties": { "id": 356772954, "name": "Кривянская" }, "geometry": { "type": "Point", "coordinates": [ 40.1645323, 47.3988641 ] } },
{ "type": "Feature", "properties": { "id": 356773000, "name": "Чалтырь" }, "geometry": { "type": "Point", "coordinates": [ 39.501518, 47.283455 ] } },
{ "type": "Feature", "properties": { "id": 356773052, "name": "Песчанокопское" }, "geometry": { "type": "Point", "coordinates": [ 41.084557, 46.184349 ] } },
{ "type": "Feature", "properties": { "id": 356773092, "name": "Семикаракорск" }, "geometry": { "type": "Point", "coordinates": [ 40.8122575, 47.516393 ] } },
{ "type": "Feature", "properties": { "id": 356773128, "name": "Егорлыкская" }, "geometry": { "type": "Point", "coordinates": [ 40.6552981, 46.5624322 ] } },
{ "type": "Feature", "properties": { "id": 356773133, "name": "Ремонтное" }, "geometry": { "type": "Point", "coordinates": [ 43.656048, 46.56118 ] } },
{ "type": "Feature", "properties": { "id": 356773139, "name": "Целина" }, "geometry": { "type": "Point", "coordinates": [ 41.028214, 46.533634 ] } },
{ "type": "Feature", "properties": { "id": 356773218, "name": "Орловский" }, "geometry": { "type": "Point", "coordinates": [ 42.051865, 46.869869 ] } },
{ "type": "Feature", "properties": { "id": 356773219, "name": "Зерноград" }, "geometry": { "type": "Point", "coordinates": [ 40.304813, 46.844845 ] } },
{ "type": "Feature", "properties": { "id": 356773231, "name": "Пролетарск" }, "geometry": { "type": "Point", "coordinates": [ 41.724079, 46.700161 ] } },
{ "type": "Feature", "properties": { "id": 654179991, "name": "Батайск" }, "geometry": { "type": "Point", "coordinates": [ 39.742348, 47.138527 ] } },
{ "type": "Feature", "properties": { "id": 806434175, "name": "Каменоломни" }, "geometry": { "type": "Point", "coordinates": [ 40.2052904, 47.6692096 ] } },
{ "type": "Feature", "properties": { "id": 1026627263, "name": "Казанская" }, "geometry": { "type": "Point", "coordinates": [ 41.13895, 49.793972 ] } },
{ "type": "Feature", "properties": { "id": 1216129223, "name": "Зверево" }, "geometry": { "type": "Point", "coordinates": [ 40.118561, 48.020645 ] } },
{ "type": "Feature", "properties": { "id": 1224164975, "name": "Донецк" }, "geometry": { "type": "Point", "coordinates": [ 39.9509488, 48.3382864 ] } },
{ "type": "Feature", "properties": { "id": 1403886680, "name": "Цимлянск" }, "geometry": { "type": "Point", "coordinates": [ 42.098232, 47.650585 ] } },
{ "type": "Feature", "properties": { "id": 1424864489, "name": "Горняцкий" }, "geometry": { "type": "Point", "coordinates": [ 40.959938, 48.292439 ] } },
{ "type": "Feature", "properties": { "id": 1826787139, "name": "Романовская" }, "geometry": { "type": "Point", "coordinates": [ 42.021465, 47.541866 ] } },
{ "type": "Feature", "properties": { "id": 2902998396, "name": "Кашары" }, "geometry": { "type": "Point", "coordinates": [ 41.008045, 49.036999 ] } }
]
}
