{
"type": "FeatureCollection",
"crs": { "type": "name", "properties": { "name": "urn:ogc:def:crs:OGC:1.3:CRS84" } },
"features": [
{ "type": "Feature", "properties": { "id": 191644503, "name": "Махачкала" }, "geometry": { "type": "Point", "coordinates": [ 47.5048717, 42.9830241 ] } },
{ "type": "Feature", "properties": { "id": 191880979, "name": "Хасавюрт" }, "geometry": { "type": "Point", "coordinates": [ 46.5855184, 43.246916 ] } },
{ "type": "Feature", "properties": { "id": 191903740, "name": "Дербент" }, "geometry": { "type": "Point", "coordinates": [ 48.2887648, 42.057858 ] } },
{ "type": "Feature", "properties": { "id": 287660963, "name": "Каспийск" }, "geometry": { "type": "Point", "coordinates": [ 47.6424676, 42.8881414 ] } },
{ "type": "Feature", "properties": { "id": 287661153, "name": "Избербаш" }, "geometry": { "type": "Point", "coordinates": [ 47.862999, 42.5710804 ] } },
{ "type": "Feature", "properties": { "id": 287662481, "name": "Касумкент" }, "geometry": { "type": "Point", "coordinates": [ 48.1516324, 41.6758118 ] } },
{ "type": "Feature", "properties": { "id": 287670803, "name": "Буйнакск" }, "geometry": { "type": "Point", "coordinates": [ 47.1219624, 42.8260906 ] } },
{ "type": "Feature", "properties": { "id": 287673747, "name": "Дагестанские Огни" }, "geometry": { "type": "Point", "coordinates": [ 48.1864201, 42.1152434 ] } },
{ "type": "Feature", "properties": { "id": 287686736, "name": "Кизилюрт" }, "geometry": { "type": "Point", "coordinates": [ 46.8713343, 43.1999049 ] } },
{ "type": "Feature", "properties": { "id": 287687179, "name": "Южно-Сухокумск" }, "geometry": { "type": "Point", "coordinates": [ 45.6501591, 44.6592701 ] } },
{ "type": "Feature", "properties": { "id": 679031958, "name": "Кизляр" }, "geometry": { "type": "Point", "coordinates": [ 46.7139329, 43.8546727 ] } },
{ "type": "Feature", "properties": { "id": 892808209, "name": "Белиджи" }, "geometry": { "type": "Point", "coordinates": [ 48.3885849, 41.871047 ] } },
{ "type": "Feature", "properties": { "id": 892808214, "name": "Магарамкент" }, "geometry": { "type": "Point", "coordinates": [ 48.349529, 41.6161537 ] } },
{ "type": "Feature", "properties": { "id": 892835005, "name": "Каякент" }, "geometry": { "type": "Point", "coordinates": [ 47.902104, 42.3889552 ] } },
{ "type": "Feature", "properties": { "id": 894075018, "name": "Мамедкала" }, "geometry": { "type": "Point", "coordinates": [ 48.1198193, 42.1692276 ] } },
{ "type": "Feature", "properties": { "id": 898812522, "name": "Ахты" }, "geometry": { "type": "Point", "coordinates": [ 47.742794, 41.462914 ] } },
{ "type": "Feature", "properties": { "id": 899119183, "name": "Карабудахкент" }, "geometry": { "type": "Point", "coordinates": [ 47.5766777, 42.7105994 ] } },
{ "type": "Feature", "properties": { "id": 899136752, "name": "Курах" }, "geometry": { "type": "Point", "coordinates": [ 47.783661, 41.58411 ] } },
{ "type": "Feature", "properties": { "id": 900689532, "name": "Маджалис" }, "geometry": { "type": "Point", "coordinates": [ 47.8343423, 42.1206478 ] } },
{ "type": "Feature", "properties": { "id": 900694358, "name": "Сергокала" }, "geometry": { "type": "Point", "coordinates": [ 47.665371, 42.453342 ] } },
{ "type": "Feature", "properties": { "id": 900699751, "name": "Цуриб" }, "geometry": { "type": "Point", "coordinates": [ 46.834106, 42.238262 ] } },
{ "type": "Feature", "properties": { "id": 900702305, "name": "Рутул" }, "geometry": { "type": "Point", "coordinates": [ 47.424484, 41.5335376 ] } },
{ "type": "Feature", "properties": { "id": 900935959, "name": "Ботлих" }, "geometry": { "type": "Point", "coordinates": [ 46.2184512, 42.6644608 ] } },
{ "type": "Feature", "properties": { "id": 902322589, "name": "Уркарах" }, "geometry": { "type": "Point", "coordinates": [ 47.6307287, 42.1637654 ] } },
{ "type": "Feature", "properties": { "id": 903973187, "name": "Новокаякент" }, "geometry": { "type": "Point", "coordinates": [ 47.9888016, 42.3883168 ] } },
{ "type": "Feature", "properties": { "id": 904020615, "name": "Вачи" }, "geometry": { "type": "Point", "coordinates": [ 47.2149487, 42.0720178 ] } },
{ "type": "Feature", "properties": { "id": 904026153, "name": "Леваши" }, "geometry": { "type": "Point", "coordinates": [ 47.323261, 42.430695 ] } },
{ "type": "Feature", "properties": { "id": 904033469, "name": "Гергебиль" }, "geometry": { "type": "Point", "coordinates": [ 47.0601713, 42.5022403 ] } },
{ "type": "Feature", "properties": { "id": 904048044, "name": "Хучни" }, "geometry": { "type": "Point", "coordinates": [ 47.9495559, 41.9522478 ] } },
{ "type": "Feature", "properties": { "id": 913343870, "name": "Шамилькала" }, "geometry": { "type": "Point", "coordinates": [ 46.8689697, 42.6870314 ] } },
{ "type": "Feature", "properties": { "id": 913358321, "name": "Хебда" }, "geometry": { "type": "Point", "coordinates": [ 46.55098, 42.444214 ] } },
{ "type": "Feature", "properties": { "id": 915301872, "name": "Акуша" }, "geometry": { "type": "Point", "coordinates": [ 47.344593, 42.277637 ] } },
{ "type": "Feature", "properties": { "id": 915304822, "name": "Бабаюрт" }, "geometry": { "type": "Point", "coordinates": [ 46.7775013, 43.6004059 ] } },
{ "type": "Feature", "properties": { "id": 915315156, "name": "Гуниб" }, "geometry": { "type": "Point", "coordinates": [ 46.9646632, 42.3870221 ] } },
{ "type": "Feature", "properties": { "id": 915337810, "name": "Тюбе" }, "geometry": { "type": "Point", "coordinates": [ 47.293709, 43.050411 ] } },
{ "type": "Feature", "properties": { "id": 915383466, "name": "Терекли-Мектеб" }, "geometry": { "type": "Point", "coordinates": [ 45.873196, 44.164783 ] } },
{ "type": "Feature", "properties": { "id": 915392873, "name": "Тарумовка" }, "geometry": { "type": "Point", "coordinates": [ 46.537163, 44.074501 ] } },
{ "type": "Feature", "properties": { "id": 915412150, "name": "Агвали" }, "geometry": { "type": "Point", "coordinates": [ 46.122169, 42.539375 ] } },
{ "type": "Feature", "properties": { "id": 959253088, "name": "Тарки" }, "geometry": { "type": "Point", "coordinates": [ 47.4967914, 42.9455179 ] } },
{ "type": "Feature", "properties": { "id": 971937096, "name": "Альбурикент" }, "geometry": { "type": "Point", "coordinates": [ 47.472382, 42.973255 ] } },
{ "type": "Feature", "properties": { "id": 975100267, "name": "Сулак" }, "geometry": { "type": "Point", "coordinates": [ 47.517567, 43.271866 ] } },
{ "type": "Feature", "properties": { "id": 975940834, "name": "Семендер" }, "geometry": { "type": "Point", "coordinates": [ 47.397411, 42.989288 ] } },
{ "type": "Feature", "properties": { "id": 983696591, "name": "Дубки" }, "geometry": { "type": "Point", "coordinates": [ 46.838097, 43.021824 ] } },
{ "type": "Feature", "properties": { "id": 1472272856, "name": "Ленинкент" }, "geometry": { "type": "Point", "coordinates": [ 47.3607531, 42.9708612 ] } },
{ "type": "Feature", "properties": { "id": 2881479751, "name": "Кяхулай" }, "geometry": { "type": "Point", "coordinates": [ 47.481007, 42.964214 ] } },
{ "type": "Feature", "properties": { "id": 3047932656, "name": "Комсомольский" }, "geometry": { "type": "Point", "coordinates": [ 46.6950001, 43.98266 ] } },
{ "type": "Feature", "properties": { "id": 5526461518, "name": "Новый Кяхулай" }, "geometry": { "type": "Point", "coordinates": [ 47.5224153, 42.9375179 ] } },
{ "type": "Feature", "properties": { "id": 7226593477, "name": "Кумух" }, "geometry": { "type": "Point", "coordinates": [ 47.1182659, 42.1702303 ] } }
]
}
