{
"type": "FeatureCollection",
"crs": { "type": "name", "properties": { "name": "urn:ogc:def:crs:OGC:1.3:CRS84" } },
"features": [
{ "type": "Feature", "properties": { "id": 27504067, "name": "Казань" }, "geometry": { "type": "Point", "coordinates": [ 49.1242266, 55.7823547 ] } },
{ "type": "Feature", "properties": { "id": 153568874, "name": "Елабуга" }, "geometry": { "type": "Point", "coordinates": [ 52.0539938, 55.7577131 ] } },
{ "type": "Feature", "properties": { "id": 191749240, "name": "Набережные Челны" }, "geometry": { "type": "Point", "coordinates": [ 52.399207, 55.7419774 ] } },
{ "type": "Feature", "properties": { "id": 273310116, "name": "Лениногорск" }, "geometry": { "type": "Point", "coordinates": [ 52.4469099, 54.5994324 ] } },
{ "type": "Feature", "properties": { "id": 295862317, "name": "Буинск" }, "geometry": { "type": "Point", "coordinates": [ 48.2926834, 54.9723656 ] } },
{ "type": "Feature", "properties": { "id": 295864677, "name": "Чистополь" }, "geometry": { "type": "Point", "coordinates": [ 50.6367311, 55.3714831 ] } },
{ "type": "Feature", "properties": { "id": 295868224, "name": "Арск" }, "geometry": { "type": "Point", "coordinates": [ 49.8771828, 56.0909916 ] } },
{ "type": "Feature", "properties": { "id": 321322750, "name": "Менделеевск" }, "geometry": { "type": "Point", "coordinates": [ 52.308443, 55.8878706 ] } },
{ "type": "Feature", "properties": { "id": 336524051, "name": "Зеленодольск" }, "geometry": { "type": "Point", "coordinates": [ 48.5097031, 55.8477605 ] } },
{ "type": "Feature", "properties": { "id": 336524182, "name": "Лаишево" }, "geometry": { "type": "Point", "coordinates": [ 49.5468376, 55.4043358 ] } },
{ "type": "Feature", "properties": { "id": 336524229, "name": "Алексеевское" }, "geometry": { "type": "Point", "coordinates": [ 50.1129039, 55.3049649 ] } },
{ "type": "Feature", "properties": { "id": 336524471, "name": "Камское Устье" }, "geometry": { "type": "Point", "coordinates": [ 49.2680082, 55.2015629 ] } },
{ "type": "Feature", "properties": { "id": 336524666, "name": "Базарные Матаки" }, "geometry": { "type": "Point", "coordinates": [ 49.9275488, 54.9034845 ] } },
{ "type": "Feature", "properties": { "id": 336524694, "name": "Тетюши" }, "geometry": { "type": "Point", "coordinates": [ 48.8319574, 54.9342754 ] } },
{ "type": "Feature", "properties": { "id": 336524899, "name": "Аксубаево" }, "geometry": { "type": "Point", "coordinates": [ 50.8055345, 54.846351 ] } },
{ "type": "Feature", "properties": { "id": 336525099, "name": "Старое Дрожжаное" }, "geometry": { "type": "Point", "coordinates": [ 47.5645397, 54.7249827 ] } },
{ "type": "Feature", "properties": { "id": 336525410, "name": "Нурлат" }, "geometry": { "type": "Point", "coordinates": [ 50.8019579, 54.4297351 ] } },
{ "type": "Feature", "properties": { "id": 337839017, "name": "Мензелинск" }, "geometry": { "type": "Point", "coordinates": [ 53.1071815, 55.7255585 ] } },
{ "type": "Feature", "properties": { "id": 337839024, "name": "Мамадыш" }, "geometry": { "type": "Point", "coordinates": [ 51.4089032, 55.7090757 ] } },
{ "type": "Feature", "properties": { "id": 337839081, "name": "Заинск" }, "geometry": { "type": "Point", "coordinates": [ 52.0056047, 55.2866509 ] } },
{ "type": "Feature", "properties": { "id": 337839100, "name": "Муслюмово" }, "geometry": { "type": "Point", "coordinates": [ 53.1975331, 55.3041209 ] } },
{ "type": "Feature", "properties": { "id": 337839105, "name": "Сарманово" }, "geometry": { "type": "Point", "coordinates": [ 52.5887176, 55.2522501 ] } },
{ "type": "Feature", "properties": { "id": 337839146, "name": "Новошешминск" }, "geometry": { "type": "Point", "coordinates": [ 51.224884, 55.0616447 ] } },
{ "type": "Feature", "properties": { "id": 337839164, "name": "Азнакаево" }, "geometry": { "type": "Point", "coordinates": [ 53.0792275, 54.8629555 ] } },
{ "type": "Feature", "properties": { "id": 337839206, "name": "Черемшан" }, "geometry": { "type": "Point", "coordinates": [ 51.5053223, 54.6611013 ] } },
{ "type": "Feature", "properties": { "id": 337839216, "name": "Уруссу" }, "geometry": { "type": "Point", "coordinates": [ 53.4663259, 54.5993324 ] } },
{ "type": "Feature", "properties": { "id": 337839279, "name": "Бавлы" }, "geometry": { "type": "Point", "coordinates": [ 53.2356367, 54.4031069 ] } },
{ "type": "Feature", "properties": { "id": 371194680, "name": "Джалиль" }, "geometry": { "type": "Point", "coordinates": [ 52.738992, 55.021971 ] } },
{ "type": "Feature", "properties": { "id": 409487025, "name": "Кукмор" }, "geometry": { "type": "Point", "coordinates": [ 50.8972087, 56.1865318 ] } },
{ "type": "Feature", "properties": { "id": 445771973, "name": "Актюбинский" }, "geometry": { "type": "Point", "coordinates": [ 52.8067822, 54.8118885 ] } },
{ "type": "Feature", "properties": { "id": 553037933, "name": "Нижнекамск" }, "geometry": { "type": "Point", "coordinates": [ 51.8160376, 55.6412879 ] } },
{ "type": "Feature", "properties": { "id": 585272830, "name": "Красный Ключ" }, "geometry": { "type": "Point", "coordinates": [ 51.819144, 55.6824888 ] } },
{ "type": "Feature", "properties": { "id": 587614698, "name": "Камские Поляны" }, "geometry": { "type": "Point", "coordinates": [ 51.4101584, 55.4255025 ] } },
{ "type": "Feature", "properties": { "id": 599924350, "name": "Болгар" }, "geometry": { "type": "Point", "coordinates": [ 49.0302075, 54.9747437 ] } },
{ "type": "Feature", "properties": { "id": 606106631, "name": "Актаныш" }, "geometry": { "type": "Point", "coordinates": [ 54.0577272, 55.7221799 ] } },
{ "type": "Feature", "properties": { "id": 697241159, "name": "Пестрецы" }, "geometry": { "type": "Point", "coordinates": [ 49.6570913, 55.7502111 ] } },
{ "type": "Feature", "properties": { "id": 697241170, "name": "Тюлячи" }, "geometry": { "type": "Point", "coordinates": [ 50.2334985, 55.8918846 ] } },
{ "type": "Feature", "properties": { "id": 698459097, "name": "Большая Атня" }, "geometry": { "type": "Point", "coordinates": [ 49.4534003, 56.2503047 ] } },
{ "type": "Feature", "properties": { "id": 701721057, "name": "Балтаси" }, "geometry": { "type": "Point", "coordinates": [ 50.2114172, 56.344623 ] } },
{ "type": "Feature", "properties": { "id": 701847474, "name": "Богатые Сабы" }, "geometry": { "type": "Point", "coordinates": [ 50.4467802, 56.0106232 ] } },
{ "type": "Feature", "properties": { "id": 703166491, "name": "Апастово" }, "geometry": { "type": "Point", "coordinates": [ 48.5068612, 55.2026717 ] } },
{ "type": "Feature", "properties": { "id": 703197622, "name": "Верхний Услон" }, "geometry": { "type": "Point", "coordinates": [ 48.9829213, 55.7685496 ] } },
{ "type": "Feature", "properties": { "id": 703680750, "name": "Рыбная Слобода" }, "geometry": { "type": "Point", "coordinates": [ 50.1406205, 55.4644212 ] } },
{ "type": "Feature", "properties": { "id": 704304024, "name": "Высокая Гора" }, "geometry": { "type": "Point", "coordinates": [ 49.3072048, 55.9101814 ] } },
{ "type": "Feature", "properties": { "id": 752193024, "name": "Нижние Вязовые" }, "geometry": { "type": "Point", "coordinates": [ 48.5223752, 55.7996324 ] } },
{ "type": "Feature", "properties": { "id": 1707207947, "name": "Бугульма" }, "geometry": { "type": "Point", "coordinates": [ 52.7955953, 54.5384152 ] } },
{ "type": "Feature", "properties": { "id": 1773881620, "name": "Агрыз" }, "geometry": { "type": "Point", "coordinates": [ 52.9971643, 56.525516 ] } },
{ "type": "Feature", "properties": { "id": 1804405492, "name": "Нижняя Мактама" }, "geometry": { "type": "Point", "coordinates": [ 52.4231307, 54.8624696 ] } },
{ "type": "Feature", "properties": { "id": 2173235770, "name": "Альметьевск" }, "geometry": { "type": "Point", "coordinates": [ 52.2963777, 54.9005008 ] } },
{ "type": "Feature", "properties": { "id": 2294499518, "name": "Иннополис" }, "geometry": { "type": "Point", "coordinates": [ 48.7445682, 55.7522117 ] } },
{ "type": "Feature", "properties": { "id": 2406531050, "name": "Карабаш" }, "geometry": { "type": "Point", "coordinates": [ 52.5873891, 54.6943977 ] } }
]
}
