{
"type": "FeatureCollection",
"crs": { "type": "name", "properties": { "name": "urn:ogc:def:crs:OGC:1.3:CRS84" } },
"features": [
{ "type": "Feature", "properties": { "id": 27504531, "name": "Пермь" }, "geometry": { "type": "Point", "coordinates": [ 56.246723, 58.014965 ] } },
{ "type": "Feature", "properties": { "id": 82739207, "name": "Чайковский" }, "geometry": { "type": "Point", "coordinates": [ 54.1500704, 56.7787468 ] } },
{ "type": "Feature", "properties": { "id": 191852866, "name": "Березники" }, "geometry": { "type": "Point", "coordinates": [ 56.8036958, 59.4084171 ] } },
{ "type": "Feature", "properties": { "id": 270875270, "name": "Губаха" }, "geometry": { "type": "Point", "coordinates": [ 57.555058, 58.842407 ] } },
{ "type": "Feature", "properties": { "id": 271277492, "name": "Сылва" }, "geometry": { "type": "Point", "coordinates": [ 56.7488434, 58.0390973 ] } },
{ "type": "Feature", "properties": { "id": 272601866, "name": "Кунгур" }, "geometry": { "type": "Point", "coordinates": [ 56.944328, 57.428844 ] } },
{ "type": "Feature", "properties": { "id": 272616339, "name": "Верещагино" }, "geometry": { "type": "Point", "coordinates": [ 54.6674784, 58.072099 ] } },
{ "type": "Feature", "properties": { "id": 272625640, "name": "Краснокамск" }, "geometry": { "type": "Point", "coordinates": [ 55.7586943, 58.0812613 ] } },
{ "type": "Feature", "properties": { "id": 274749672, "name": "Суксун" }, "geometry": { "type": "Point", "coordinates": [ 57.394765, 57.1465382 ] } },
{ "type": "Feature", "properties": { "id": 283530592, "name": "Очёр" }, "geometry": { "type": "Point", "coordinates": [ 54.715823, 57.8836175 ] } },
{ "type": "Feature", "properties": { "id": 283579400, "name": "Полазна" }, "geometry": { "type": "Point", "coordinates": [ 56.4136872, 58.2909057 ] } },
{ "type": "Feature", "properties": { "id": 283581865, "name": "Добрянка" }, "geometry": { "type": "Point", "coordinates": [ 56.4007589, 58.4624764 ] } },
{ "type": "Feature", "properties": { "id": 285734826, "name": "Красновишерск" }, "geometry": { "type": "Point", "coordinates": [ 57.0767045, 60.4017837 ] } },
{ "type": "Feature", "properties": { "id": 285736628, "name": "Соликамск" }, "geometry": { "type": "Point", "coordinates": [ 56.7706247, 59.6493177 ] } },
{ "type": "Feature", "properties": { "id": 285736802, "name": "Усолье" }, "geometry": { "type": "Point", "coordinates": [ 56.6830803, 59.4180251 ] } },
{ "type": "Feature", "properties": { "id": 285738845, "name": "Яйва" }, "geometry": { "type": "Point", "coordinates": [ 57.266155, 59.3321491 ] } },
{ "type": "Feature", "properties": { "id": 285745298, "name": "Александровск" }, "geometry": { "type": "Point", "coordinates": [ 57.5861232, 59.1593861 ] } },
{ "type": "Feature", "properties": { "id": 285746241, "name": "Кизел" }, "geometry": { "type": "Point", "coordinates": [ 57.6535, 59.049252 ] } },
{ "type": "Feature", "properties": { "id": 285749160, "name": "Чусовой" }, "geometry": { "type": "Point", "coordinates": [ 57.821075, 58.282055 ] } },
{ "type": "Feature", "properties": { "id": 288092970, "name": "Карагай" }, "geometry": { "type": "Point", "coordinates": [ 54.9298551, 58.2651656 ] } },
{ "type": "Feature", "properties": { "id": 288096530, "name": "Кудымкар" }, "geometry": { "type": "Point", "coordinates": [ 54.664135, 59.014606 ] } },
{ "type": "Feature", "properties": { "id": 288115144, "name": "Горнозаводск" }, "geometry": { "type": "Point", "coordinates": [ 58.325058, 58.374001 ] } },
{ "type": "Feature", "properties": { "id": 289011795, "name": "Оса" }, "geometry": { "type": "Point", "coordinates": [ 55.4602059, 57.2829207 ] } },
{ "type": "Feature", "properties": { "id": 296410521, "name": "Чернушка" }, "geometry": { "type": "Point", "coordinates": [ 56.0765041, 56.5152817 ] } },
{ "type": "Feature", "properties": { "id": 296422834, "name": "Куеда" }, "geometry": { "type": "Point", "coordinates": [ 55.590763, 56.433506 ] } },
{ "type": "Feature", "properties": { "id": 307964759, "name": "Углеуральский" }, "geometry": { "type": "Point", "coordinates": [ 57.587696, 58.941525 ] } },
{ "type": "Feature", "properties": { "id": 307965249, "name": "Гремячинск" }, "geometry": { "type": "Point", "coordinates": [ 57.8504049, 58.5669663 ] } },
{ "type": "Feature", "properties": { "id": 308220097, "name": "Лысьва" }, "geometry": { "type": "Point", "coordinates": [ 57.8028461, 58.105056 ] } },
{ "type": "Feature", "properties": { "id": 315635178, "name": "Орда" }, "geometry": { "type": "Point", "coordinates": [ 56.905411, 57.195717 ] } },
{ "type": "Feature", "properties": { "id": 315635287, "name": "Уинское" }, "geometry": { "type": "Point", "coordinates": [ 56.5840712, 56.8790087 ] } },
{ "type": "Feature", "properties": { "id": 331180517, "name": "Барда" }, "geometry": { "type": "Point", "coordinates": [ 55.586967, 56.930187 ] } },
{ "type": "Feature", "properties": { "id": 335978540, "name": "Чердынь" }, "geometry": { "type": "Point", "coordinates": [ 56.4785338, 60.4027097 ] } },
{ "type": "Feature", "properties": { "id": 335978731, "name": "Коса" }, "geometry": { "type": "Point", "coordinates": [ 54.989826, 59.944386 ] } },
{ "type": "Feature", "properties": { "id": 335978802, "name": "Юрла" }, "geometry": { "type": "Point", "coordinates": [ 54.3246555, 59.3286875 ] } },
{ "type": "Feature", "properties": { "id": 344919863, "name": "Нытва" }, "geometry": { "type": "Point", "coordinates": [ 55.3316349, 57.943423 ] } },
{ "type": "Feature", "properties": { "id": 364775751, "name": "Чёрмоз" }, "geometry": { "type": "Point", "coordinates": [ 56.153381, 58.784988 ] } },
{ "type": "Feature", "properties": { "id": 451666424, "name": "Ныроб" }, "geometry": { "type": "Point", "coordinates": [ 56.73349, 60.7430341 ] } },
{ "type": "Feature", "properties": { "id": 456118810, "name": "Октябрьский" }, "geometry": { "type": "Point", "coordinates": [ 57.2035567, 56.5143078 ] } },
{ "type": "Feature", "properties": { "id": 456118814, "name": "Сарс" }, "geometry": { "type": "Point", "coordinates": [ 57.127543, 56.5497661 ] } },
{ "type": "Feature", "properties": { "id": 474950312, "name": "Уральский" }, "geometry": { "type": "Point", "coordinates": [ 55.5571301, 57.9441296 ] } },
{ "type": "Feature", "properties": { "id": 524691473, "name": "Елово" }, "geometry": { "type": "Point", "coordinates": [ 54.9157617, 57.0503872 ] } },
{ "type": "Feature", "properties": { "id": 524697467, "name": "Оханск" }, "geometry": { "type": "Point", "coordinates": [ 55.3859893, 57.721785 ] } },
{ "type": "Feature", "properties": { "id": 540335128, "name": "Усть-Кишерть" }, "geometry": { "type": "Point", "coordinates": [ 57.2471775, 57.3599717 ] } },
{ "type": "Feature", "properties": { "id": 560087619, "name": "Ильинский" }, "geometry": { "type": "Point", "coordinates": [ 55.6992711, 58.5703756 ] } },
{ "type": "Feature", "properties": { "id": 569505017, "name": "Звёздный" }, "geometry": { "type": "Point", "coordinates": [ 56.313526, 57.73531 ] } },
{ "type": "Feature", "properties": { "id": 597117358, "name": "Гайны" }, "geometry": { "type": "Point", "coordinates": [ 54.327332, 60.304131 ] } },
{ "type": "Feature", "properties": { "id": 617808844, "name": "Юсьва" }, "geometry": { "type": "Point", "coordinates": [ 54.9605745, 58.964665 ] } },
{ "type": "Feature", "properties": { "id": 639339909, "name": "Лямино" }, "geometry": { "type": "Point", "coordinates": [ 57.729313, 58.283688 ] } },
{ "type": "Feature", "properties": { "id": 799204122, "name": "Кочёво" }, "geometry": { "type": "Point", "coordinates": [ 54.3116609, 59.5976425 ] } },
{ "type": "Feature", "properties": { "id": 820233299, "name": "Сива" }, "geometry": { "type": "Point", "coordinates": [ 54.380031, 58.3813868 ] } },
{ "type": "Feature", "properties": { "id": 826869796, "name": "Частые" }, "geometry": { "type": "Point", "coordinates": [ 54.9718414, 57.2918228 ] } },
{ "type": "Feature", "properties": { "id": 8327288415, "name": "Юго-Камский" }, "geometry": { "type": "Point", "coordinates": [ 55.5826587, 57.7024463 ] } }
]
}
