{
"type": "FeatureCollection",
"crs": { "type": "name", "properties": { "name": "urn:ogc:def:crs:OGC:1.3:CRS84" } },
"features": [
{ "type": "Feature", "properties": { "id": 27504590, "name": "Саратов" }, "geometry": { "type": "Point", "coordinates": [ 46.034683, 51.530018 ] } },
{ "type": "Feature", "properties": { "id": 90441479, "name": "Красный Кут" }, "geometry": { "type": "Point", "coordinates": [ 46.972462, 50.9459056 ] } },
{ "type": "Feature", "properties": { "id": 101480194, "name": "Энгельс" }, "geometry": { "type": "Point", "coordinates": [ 46.1233093, 51.5013775 ] } },
{ "type": "Feature", "properties": { "id": 281613050, "name": "Маркс" }, "geometry": { "type": "Point", "coordinates": [ 46.7483653, 51.7069911 ] } },
{ "type": "Feature", "properties": { "id": 287005365, "name": "Новоузенск" }, "geometry": { "type": "Point", "coordinates": [ 48.135532, 50.462326 ] } },
{ "type": "Feature", "properties": { "id": 287756202, "name": "Пугачёв" }, "geometry": { "type": "Point", "coordinates": [ 48.8109795, 52.0121253 ] } },
{ "type": "Feature", "properties": { "id": 336140336, "name": "Ртищево" }, "geometry": { "type": "Point", "coordinates": [ 43.7877429, 52.2599057 ] } },
{ "type": "Feature", "properties": { "id": 336140412, "name": "Аркадак" }, "geometry": { "type": "Point", "coordinates": [ 43.489098, 51.942913 ] } },
{ "type": "Feature", "properties": { "id": 336140509, "name": "Романовка" }, "geometry": { "type": "Point", "coordinates": [ 42.7557244, 51.7410278 ] } },
{ "type": "Feature", "properties": { "id": 336140569, "name": "Балашов" }, "geometry": { "type": "Point", "coordinates": [ 43.1430732, 51.5546717 ] } },
{ "type": "Feature", "properties": { "id": 336140607, "name": "Калининск" }, "geometry": { "type": "Point", "coordinates": [ 44.484581, 51.499947 ] } },
{ "type": "Feature", "properties": { "id": 336140761, "name": "Самойловка" }, "geometry": { "type": "Point", "coordinates": [ 43.7067631, 51.1860003 ] } },
{ "type": "Feature", "properties": { "id": 336141212, "name": "Аткарск" }, "geometry": { "type": "Point", "coordinates": [ 44.997499, 51.8750207 ] } },
{ "type": "Feature", "properties": { "id": 344967838, "name": "Хвалынск" }, "geometry": { "type": "Point", "coordinates": [ 48.105888, 52.495499 ] } },
{ "type": "Feature", "properties": { "id": 344967862, "name": "Петровск" }, "geometry": { "type": "Point", "coordinates": [ 45.3889831, 52.3094494 ] } },
{ "type": "Feature", "properties": { "id": 344967884, "name": "Базарный Карабулак" }, "geometry": { "type": "Point", "coordinates": [ 46.410679, 52.277653 ] } },
{ "type": "Feature", "properties": { "id": 344967885, "name": "Балаково" }, "geometry": { "type": "Point", "coordinates": [ 47.819141, 52.01812 ] } },
{ "type": "Feature", "properties": { "id": 344967887, "name": "Новые Бурасы" }, "geometry": { "type": "Point", "coordinates": [ 46.076084, 52.129726 ] } },
{ "type": "Feature", "properties": { "id": 344967889, "name": "Сенной" }, "geometry": { "type": "Point", "coordinates": [ 46.9622024, 52.1579559 ] } },
{ "type": "Feature", "properties": { "id": 344967893, "name": "Вольск" }, "geometry": { "type": "Point", "coordinates": [ 47.386032, 52.042755 ] } },
{ "type": "Feature", "properties": { "id": 344967910, "name": "Горный" }, "geometry": { "type": "Point", "coordinates": [ 48.5385335, 51.756121 ] } },
{ "type": "Feature", "properties": { "id": 344967920, "name": "Татищево" }, "geometry": { "type": "Point", "coordinates": [ 45.5947, 51.672623 ] } },
{ "type": "Feature", "properties": { "id": 344967937, "name": "Ершов" }, "geometry": { "type": "Point", "coordinates": [ 48.2657332, 51.349793 ] } },
{ "type": "Feature", "properties": { "id": 344967942, "name": "Степное" }, "geometry": { "type": "Point", "coordinates": [ 46.844463, 51.378075 ] } },
{ "type": "Feature", "properties": { "id": 344967943, "name": "Дергачи" }, "geometry": { "type": "Point", "coordinates": [ 48.768578, 51.235374 ] } },
{ "type": "Feature", "properties": { "id": 344967973, "name": "Красноармейск" }, "geometry": { "type": "Point", "coordinates": [ 45.69252, 51.025776 ] } },
{ "type": "Feature", "properties": { "id": 344967989, "name": "Ровное" }, "geometry": { "type": "Point", "coordinates": [ 46.057549, 50.775948 ] } },
{ "type": "Feature", "properties": { "id": 344967991, "name": "Питерка" }, "geometry": { "type": "Point", "coordinates": [ 47.443729, 50.678619 ] } },
{ "type": "Feature", "properties": { "id": 344968002, "name": "Александров Гай" }, "geometry": { "type": "Point", "coordinates": [ 48.568436, 50.14246 ] } },
{ "type": "Feature", "properties": { "id": 914747093, "name": "Мокроус" }, "geometry": { "type": "Point", "coordinates": [ 47.51474, 51.237442 ] } },
{ "type": "Feature", "properties": { "id": 914747140, "name": "Озинки" }, "geometry": { "type": "Point", "coordinates": [ 49.72654, 51.198559 ] } },
{ "type": "Feature", "properties": { "id": 915072945, "name": "Шиханы" }, "geometry": { "type": "Point", "coordinates": [ 47.198475, 52.114838 ] } },
{ "type": "Feature", "properties": { "id": 1028724026, "name": "Перелюб" }, "geometry": { "type": "Point", "coordinates": [ 50.344826, 51.85857 ] } },
{ "type": "Feature", "properties": { "id": 1213967431, "name": "Светлый" }, "geometry": { "type": "Point", "coordinates": [ 45.6227753, 51.6737086 ] } },
{ "type": "Feature", "properties": { "id": 1427063759, "name": "Духовницкое" }, "geometry": { "type": "Point", "coordinates": [ 48.2021353, 52.4793156 ] } },
{ "type": "Feature", "properties": { "id": 1427063760, "name": "Екатериновка" }, "geometry": { "type": "Point", "coordinates": [ 44.3498585, 52.0536048 ] } },
{ "type": "Feature", "properties": { "id": 1567120290, "name": "Ивантеевка" }, "geometry": { "type": "Point", "coordinates": [ 49.107063, 52.269524 ] } }
]
}
