{
"type": "FeatureCollection",
"crs": { "type": "name", "properties": { "name": "urn:ogc:def:crs:OGC:1.3:CRS84" } },
"features": [
{ "type": "Feature", "properties": { "id": 27505335, "name": "Иркутск" }, "geometry": { "type": "Point", "coordinates": [ 104.279829, 52.2891225 ] } },
{ "type": "Feature", "properties": { "id": 191758663, "name": "Братск" }, "geometry": { "type": "Point", "coordinates": [ 101.6334907, 56.1517085 ] } },
{ "type": "Feature", "properties": { "id": 191773560, "name": "Ангарск" }, "geometry": { "type": "Point", "coordinates": [ 103.8882138, 52.5443167 ] } },
{ "type": "Feature", "properties": { "id": 204764214, "name": "Слюдянка" }, "geometry": { "type": "Point", "coordinates": [ 103.719292, 51.656769 ] } },
{ "type": "Feature", "properties": { "id": 210321646, "name": "Бирюсинск" }, "geometry": { "type": "Point", "coordinates": [ 97.8169774, 55.9623053 ] } },
{ "type": "Feature", "properties": { "id": 210323639, "name": "Тайшет" }, "geometry": { "type": "Point", "coordinates": [ 98.0196711, 55.9385304 ] } },
{ "type": "Feature", "properties": { "id": 243083247, "name": "Нижнеудинск" }, "geometry": { "type": "Point", "coordinates": [ 99.0302862, 54.9084881 ] } },
{ "type": "Feature", "properties": { "id": 243329007, "name": "Тулун" }, "geometry": { "type": "Point", "coordinates": [ 100.579216, 54.562096 ] } },
{ "type": "Feature", "properties": { "id": 254587738, "name": "Усть-Илимск" }, "geometry": { "type": "Point", "coordinates": [ 102.734192, 57.959473 ] } },
{ "type": "Feature", "properties": { "id": 275772033, "name": "Большой Луг" }, "geometry": { "type": "Point", "coordinates": [ 104.0868576, 52.0791585 ] } },
{ "type": "Feature", "properties": { "id": 275772536, "name": "Шелехов" }, "geometry": { "type": "Point", "coordinates": [ 104.097683, 52.2097478 ] } },
{ "type": "Feature", "properties": { "id": 276092580, "name": "Алзамай" }, "geometry": { "type": "Point", "coordinates": [ 98.6654191, 55.554956 ] } },
{ "type": "Feature", "properties": { "id": 276092772, "name": "Куйтун" }, "geometry": { "type": "Point", "coordinates": [ 101.5174603, 54.349332 ] } },
{ "type": "Feature", "properties": { "id": 276092773, "name": "Саянск" }, "geometry": { "type": "Point", "coordinates": [ 102.1785158, 54.1123301 ] } },
{ "type": "Feature", "properties": { "id": 276092774, "name": "Зима" }, "geometry": { "type": "Point", "coordinates": [ 102.0491543, 53.9211241 ] } },
{ "type": "Feature", "properties": { "id": 276092781, "name": "Залари" }, "geometry": { "type": "Point", "coordinates": [ 102.5021669, 53.5511597 ] } },
{ "type": "Feature", "properties": { "id": 276092950, "name": "Черемхово" }, "geometry": { "type": "Point", "coordinates": [ 103.070145, 53.148434 ] } },
{ "type": "Feature", "properties": { "id": 276092975, "name": "Свирск" }, "geometry": { "type": "Point", "coordinates": [ 103.342331, 53.066269 ] } },
{ "type": "Feature", "properties": { "id": 276092977, "name": "Усолье-Сибирское" }, "geometry": { "type": "Point", "coordinates": [ 103.6621625, 52.7512013 ] } },
{ "type": "Feature", "properties": { "id": 276093348, "name": "Байкальск" }, "geometry": { "type": "Point", "coordinates": [ 104.1410261, 51.5171917 ] } },
{ "type": "Feature", "properties": { "id": 279978754, "name": "Усть-Кут" }, "geometry": { "type": "Point", "coordinates": [ 105.7460255, 56.7810026 ] } },
{ "type": "Feature", "properties": { "id": 283703527, "name": "Кутулик" }, "geometry": { "type": "Point", "coordinates": [ 102.7943688, 53.3435927 ] } },
{ "type": "Feature", "properties": { "id": 289843365, "name": "Оса" }, "geometry": { "type": "Point", "coordinates": [ 103.877457, 53.388348 ] } },
{ "type": "Feature", "properties": { "id": 300582728, "name": "Новая Игирма" }, "geometry": { "type": "Point", "coordinates": [ 103.924072, 57.1442457 ] } },
{ "type": "Feature", "properties": { "id": 300612214, "name": "Железногорск-Илимский" }, "geometry": { "type": "Point", "coordinates": [ 104.12294, 56.577915 ] } },
{ "type": "Feature", "properties": { "id": 301636452, "name": "Киренск" }, "geometry": { "type": "Point", "coordinates": [ 108.116295, 57.776356 ] } },
{ "type": "Feature", "properties": { "id": 302036717, "name": "Качуг" }, "geometry": { "type": "Point", "coordinates": [ 105.885147, 53.960819 ] } },
{ "type": "Feature", "properties": { "id": 302372139, "name": "Мама" }, "geometry": { "type": "Point", "coordinates": [ 112.903419, 58.310555 ] } },
{ "type": "Feature", "properties": { "id": 355942616, "name": "Михайловка" }, "geometry": { "type": "Point", "coordinates": [ 103.288483, 52.960114 ] } },
{ "type": "Feature", "properties": { "id": 376237747, "name": "Жигалово" }, "geometry": { "type": "Point", "coordinates": [ 105.15229, 54.812668 ] } },
{ "type": "Feature", "properties": { "id": 432642944, "name": "Магистральный" }, "geometry": { "type": "Point", "coordinates": [ 107.452629, 56.176498 ] } },
{ "type": "Feature", "properties": { "id": 441108611, "name": "Чунский" }, "geometry": { "type": "Point", "coordinates": [ 99.633705, 56.091248 ] } },
{ "type": "Feature", "properties": { "id": 645153178, "name": "Еланцы" }, "geometry": { "type": "Point", "coordinates": [ 106.404564, 52.799557 ] } },
{ "type": "Feature", "properties": { "id": 700761838, "name": "Балаганск" }, "geometry": { "type": "Point", "coordinates": [ 103.0577254, 54.0067034 ] } },
{ "type": "Feature", "properties": { "id": 700761840, "name": "Усть-Уда" }, "geometry": { "type": "Point", "coordinates": [ 103.028229, 54.174809 ] } },
{ "type": "Feature", "properties": { "id": 900970085, "name": "Вихоревка" }, "geometry": { "type": "Point", "coordinates": [ 101.171951, 56.124722 ] } },
{ "type": "Feature", "properties": { "id": 913094992, "name": "Мегет" }, "geometry": { "type": "Point", "coordinates": [ 104.057907, 52.420177 ] } },
{ "type": "Feature", "properties": { "id": 1044077335, "name": "Бохан" }, "geometry": { "type": "Point", "coordinates": [ 103.766212, 53.153561 ] } },
{ "type": "Feature", "properties": { "id": 1067034192, "name": "Новонукутский" }, "geometry": { "type": "Point", "coordinates": [ 102.711548, 53.700245 ] } },
{ "type": "Feature", "properties": { "id": 1182206250, "name": "Баяндай" }, "geometry": { "type": "Point", "coordinates": [ 105.517876, 53.067226 ] } },
{ "type": "Feature", "properties": { "id": 1344365760, "name": "Мишелёвка" }, "geometry": { "type": "Point", "coordinates": [ 103.184097, 52.865021 ] } },
{ "type": "Feature", "properties": { "id": 1424900795, "name": "Маркова" }, "geometry": { "type": "Point", "coordinates": [ 104.205444, 52.213161 ] } },
{ "type": "Feature", "properties": { "id": 1441741845, "name": "Юрты" }, "geometry": { "type": "Point", "coordinates": [ 97.6251106, 56.0513694 ] } },
{ "type": "Feature", "properties": { "id": 1446107105, "name": "Железнодорожный" }, "geometry": { "type": "Point", "coordinates": [ 102.775116, 57.908489 ] } },
{ "type": "Feature", "properties": { "id": 2032658793, "name": "Тельма" }, "geometry": { "type": "Point", "coordinates": [ 103.71505, 52.6967 ] } },
{ "type": "Feature", "properties": { "id": 4382960062, "name": "Усть-Ордынский" }, "geometry": { "type": "Point", "coordinates": [ 104.7534712, 52.8052218 ] } },
{ "type": "Feature", "properties": { "id": 6855343246, "name": "Белореченский" }, "geometry": { "type": "Point", "coordinates": [ 103.52552, 52.8142174 ] } },
{ "type": "Feature", "properties": { "id": 8383866283, "name": "Бодайбо" }, "geometry": { "type": "Point", "coordinates": [ 114.2039967, 57.8499525 ] } }
]
}
