{
"type": "FeatureCollection",
"crs": { "type": "name", "properties": { "name": "urn:ogc:def:crs:OGC:1.3:CRS84" } },
"features": [
{ "type": "Feature", "properties": { "id": 54, "name": "Новосибирск" }, "geometry": { "type": "Point", "coordinates": [ 82.9226887, 55.0288307 ] } },
{ "type": "Feature", "properties": { "id": 210251157, "name": "Чик" }, "geometry": { "type": "Point", "coordinates": [ 82.4427018, 54.9944056 ] } },
{ "type": "Feature", "properties": { "id": 252975800, "name": "Краснообск" }, "geometry": { "type": "Point", "coordinates": [ 82.9905861, 54.9211081 ] } },
{ "type": "Feature", "properties": { "id": 278023046, "name": "Татарск" }, "geometry": { "type": "Point", "coordinates": [ 75.962196, 55.216961 ] } },
{ "type": "Feature", "properties": { "id": 278991732, "name": "Ордынское" }, "geometry": { "type": "Point", "coordinates": [ 81.904022, 54.366676 ] } },
{ "type": "Feature", "properties": { "id": 280304251, "name": "Бердск" }, "geometry": { "type": "Point", "coordinates": [ 83.1068095, 54.75795 ] } },
{ "type": "Feature", "properties": { "id": 280352393, "name": "Краснозёрское" }, "geometry": { "type": "Point", "coordinates": [ 79.228577, 53.984768 ] } },
{ "type": "Feature", "properties": { "id": 280352878, "name": "Кочки" }, "geometry": { "type": "Point", "coordinates": [ 80.487846, 54.334766 ] } },
{ "type": "Feature", "properties": { "id": 281427282, "name": "Сузун" }, "geometry": { "type": "Point", "coordinates": [ 82.316231, 53.783924 ] } },
{ "type": "Feature", "properties": { "id": 281431442, "name": "Черепаново" }, "geometry": { "type": "Point", "coordinates": [ 83.370468, 54.226101 ] } },
{ "type": "Feature", "properties": { "id": 281431602, "name": "Линёво" }, "geometry": { "type": "Point", "coordinates": [ 83.379074, 54.456459 ] } },
{ "type": "Feature", "properties": { "id": 281431605, "name": "Искитим" }, "geometry": { "type": "Point", "coordinates": [ 83.3035676, 54.6426269 ] } },
{ "type": "Feature", "properties": { "id": 281431826, "name": "Барабинск" }, "geometry": { "type": "Point", "coordinates": [ 78.350348, 55.3567611 ] } },
{ "type": "Feature", "properties": { "id": 281433268, "name": "Каргат" }, "geometry": { "type": "Point", "coordinates": [ 80.2828252, 55.1929899 ] } },
{ "type": "Feature", "properties": { "id": 281433500, "name": "Чулым" }, "geometry": { "type": "Point", "coordinates": [ 80.970459, 55.09 ] } },
{ "type": "Feature", "properties": { "id": 282914618, "name": "Карасук" }, "geometry": { "type": "Point", "coordinates": [ 78.032372, 53.73447 ] } },
{ "type": "Feature", "properties": { "id": 289464809, "name": "Криводановка" }, "geometry": { "type": "Point", "coordinates": [ 82.6440062, 55.0859006 ] } },
{ "type": "Feature", "properties": { "id": 290215681, "name": "Здвинск" }, "geometry": { "type": "Point", "coordinates": [ 78.667595, 54.703968 ] } },
{ "type": "Feature", "properties": { "id": 291860771, "name": "Маслянино" }, "geometry": { "type": "Point", "coordinates": [ 84.21067, 54.345501 ] } },
{ "type": "Feature", "properties": { "id": 293591177, "name": "Болотное" }, "geometry": { "type": "Point", "coordinates": [ 84.388557, 55.6715707 ] } },
{ "type": "Feature", "properties": { "id": 312701724, "name": "Купино" }, "geometry": { "type": "Point", "coordinates": [ 77.30854, 54.364929 ] } },
{ "type": "Feature", "properties": { "id": 378946490, "name": "Чаны" }, "geometry": { "type": "Point", "coordinates": [ 76.759605, 55.308064 ] } },
{ "type": "Feature", "properties": { "id": 378946548, "name": "Убинское" }, "geometry": { "type": "Point", "coordinates": [ 79.679375, 55.306721 ] } },
{ "type": "Feature", "properties": { "id": 378946571, "name": "Коченёво" }, "geometry": { "type": "Point", "coordinates": [ 82.207718, 55.021442 ] } },
{ "type": "Feature", "properties": { "id": 442693826, "name": "Чистоозёрное" }, "geometry": { "type": "Point", "coordinates": [ 76.582344, 54.712204 ] } },
{ "type": "Feature", "properties": { "id": 660581639, "name": "Обь" }, "geometry": { "type": "Point", "coordinates": [ 82.6933946, 54.9951335 ] } },
{ "type": "Feature", "properties": { "id": 663979337, "name": "Баган" }, "geometry": { "type": "Point", "coordinates": [ 77.6718776, 54.0968728 ] } },
{ "type": "Feature", "properties": { "id": 663979358, "name": "Довольное" }, "geometry": { "type": "Point", "coordinates": [ 79.667091, 54.495785 ] } },
{ "type": "Feature", "properties": { "id": 667953317, "name": "Мошково" }, "geometry": { "type": "Point", "coordinates": [ 83.611855, 55.304806 ] } },
{ "type": "Feature", "properties": { "id": 672612000, "name": "Тогучин" }, "geometry": { "type": "Point", "coordinates": [ 84.402458, 55.23769 ] } },
{ "type": "Feature", "properties": { "id": 748926259, "name": "Горный" }, "geometry": { "type": "Point", "coordinates": [ 83.878761, 55.118286 ] } },
{ "type": "Feature", "properties": { "id": 911959278, "name": "Северное" }, "geometry": { "type": "Point", "coordinates": [ 78.3649455, 56.3500996 ] } },
{ "type": "Feature", "properties": { "id": 929414144, "name": "Усть-Тарка" }, "geometry": { "type": "Point", "coordinates": [ 75.706017, 55.563934 ] } },
{ "type": "Feature", "properties": { "id": 953665409, "name": "Венгерово" }, "geometry": { "type": "Point", "coordinates": [ 76.739029, 55.681034 ] } },
{ "type": "Feature", "properties": { "id": 958281766, "name": "Кыштовка" }, "geometry": { "type": "Point", "coordinates": [ 76.624588, 56.55957 ] } },
{ "type": "Feature", "properties": { "id": 1156528460, "name": "Куйбышев" }, "geometry": { "type": "Point", "coordinates": [ 78.3222294, 55.4454258 ] } },
{ "type": "Feature", "properties": { "id": 1282776137, "name": "Кольцово" }, "geometry": { "type": "Point", "coordinates": [ 83.187139, 54.9367736 ] } },
{ "type": "Feature", "properties": { "id": 2713736090, "name": "Колывань" }, "geometry": { "type": "Point", "coordinates": [ 82.7433464, 55.3068791 ] } }
]
}
