{
"type": "FeatureCollection",
"crs": { "type": "name", "properties": { "name": "urn:ogc:def:crs:OGC:1.3:CRS84" } },
"features": [
{ "type": "Feature", "properties": { "id": 27503946, "name": "Омск" }, "geometry": { "type": "Point", "coordinates": [ 73.371529, 54.991375 ] } },
{ "type": "Feature", "properties": { "id": 243993520, "name": "Называевск" }, "geometry": { "type": "Point", "coordinates": [ 71.349365, 55.564896 ] } },
{ "type": "Feature", "properties": { "id": 278876144, "name": "Усть-Ишим" }, "geometry": { "type": "Point", "coordinates": [ 71.169968, 57.693462 ] } },
{ "type": "Feature", "properties": { "id": 289980364, "name": "Калачинск" }, "geometry": { "type": "Point", "coordinates": [ 74.582428, 55.049091 ] } },
{ "type": "Feature", "properties": { "id": 289992321, "name": "Горьковское" }, "geometry": { "type": "Point", "coordinates": [ 74.362556, 55.371033 ] } },
{ "type": "Feature", "properties": { "id": 289994080, "name": "Одесское" }, "geometry": { "type": "Point", "coordinates": [ 72.965538, 54.20969 ] } },
{ "type": "Feature", "properties": { "id": 289996348, "name": "Русская Поляна" }, "geometry": { "type": "Point", "coordinates": [ 73.882103, 53.780357 ] } },
{ "type": "Feature", "properties": { "id": 296138675, "name": "Тюкалинск" }, "geometry": { "type": "Point", "coordinates": [ 72.196617, 55.870556 ] } },
{ "type": "Feature", "properties": { "id": 296140782, "name": "Красный Яр" }, "geometry": { "type": "Point", "coordinates": [ 72.923889, 55.240089 ] } },
{ "type": "Feature", "properties": { "id": 378946456, "name": "Кормиловка" }, "geometry": { "type": "Point", "coordinates": [ 74.092224, 55.002613 ] } },
{ "type": "Feature", "properties": { "id": 466973903, "name": "Черлак" }, "geometry": { "type": "Point", "coordinates": [ 74.7974987, 54.154067 ] } },
{ "type": "Feature", "properties": { "id": 478340455, "name": "Лузино" }, "geometry": { "type": "Point", "coordinates": [ 73.0278, 54.94897 ] } },
{ "type": "Feature", "properties": { "id": 517658001, "name": "Тара" }, "geometry": { "type": "Point", "coordinates": [ 74.3698652, 56.902587 ] } },
{ "type": "Feature", "properties": { "id": 517682881, "name": "Колосовка" }, "geometry": { "type": "Point", "coordinates": [ 73.606575, 56.467625 ] } },
{ "type": "Feature", "properties": { "id": 524331733, "name": "Большеречье" }, "geometry": { "type": "Point", "coordinates": [ 74.639519, 56.094585 ] } },
{ "type": "Feature", "properties": { "id": 569157957, "name": "Исилькуль" }, "geometry": { "type": "Point", "coordinates": [ 71.259987, 54.904892 ] } },
{ "type": "Feature", "properties": { "id": 569158053, "name": "Москаленки" }, "geometry": { "type": "Point", "coordinates": [ 71.92588, 54.939468 ] } },
{ "type": "Feature", "properties": { "id": 673459909, "name": "Муромцево" }, "geometry": { "type": "Point", "coordinates": [ 75.237198, 56.369392 ] } },
{ "type": "Feature", "properties": { "id": 739265601, "name": "Саргатское" }, "geometry": { "type": "Point", "coordinates": [ 73.490257, 55.603386 ] } },
{ "type": "Feature", "properties": { "id": 747783597, "name": "Знаменское" }, "geometry": { "type": "Point", "coordinates": [ 73.821983, 57.127403 ] } },
{ "type": "Feature", "properties": { "id": 748727755, "name": "Тевриз" }, "geometry": { "type": "Point", "coordinates": [ 72.398911, 57.513668 ] } },
{ "type": "Feature", "properties": { "id": 748727983, "name": "Большие Уки" }, "geometry": { "type": "Point", "coordinates": [ 72.625717, 56.949043 ] } },
{ "type": "Feature", "properties": { "id": 769049397, "name": "Полтавка" }, "geometry": { "type": "Point", "coordinates": [ 71.7609168, 54.3642388 ] } },
{ "type": "Feature", "properties": { "id": 773512447, "name": "Шербакуль" }, "geometry": { "type": "Point", "coordinates": [ 72.392822, 54.631046 ] } },
{ "type": "Feature", "properties": { "id": 773512565, "name": "Азово" }, "geometry": { "type": "Point", "coordinates": [ 73.026871, 54.70385 ] } },
{ "type": "Feature", "properties": { "id": 773512978, "name": "Марьяновка" }, "geometry": { "type": "Point", "coordinates": [ 72.637947, 54.960659 ] } },
{ "type": "Feature", "properties": { "id": 774520852, "name": "Крутинка" }, "geometry": { "type": "Point", "coordinates": [ 71.511307, 56.006351 ] } },
{ "type": "Feature", "properties": { "id": 781601321, "name": "Любинский" }, "geometry": { "type": "Point", "coordinates": [ 72.699005, 55.156715 ] } },
{ "type": "Feature", "properties": { "id": 864635568, "name": "Седельниково" }, "geometry": { "type": "Point", "coordinates": [ 75.306061, 56.945618 ] } },
{ "type": "Feature", "properties": { "id": 938450238, "name": "Нижняя Омка" }, "geometry": { "type": "Point", "coordinates": [ 74.938004, 55.43359 ] } },
{ "type": "Feature", "properties": { "id": 1028723970, "name": "Нововаршавка" }, "geometry": { "type": "Point", "coordinates": [ 74.696037, 54.170616 ] } },
{ "type": "Feature", "properties": { "id": 1028724251, "name": "Павлоградка" }, "geometry": { "type": "Point", "coordinates": [ 73.556488, 54.205006 ] } },
{ "type": "Feature", "properties": { "id": 1838482543, "name": "Оконешниково" }, "geometry": { "type": "Point", "coordinates": [ 75.0727251, 54.8373364 ] } },
{ "type": "Feature", "properties": { "id": 1866817120, "name": "Таврическое" }, "geometry": { "type": "Point", "coordinates": [ 73.637436, 54.586674 ] } }
]
}
