{
"type": "FeatureCollection",
"crs": { "type": "name", "properties": { "name": "urn:ogc:def:crs:OGC:1.3:CRS84" } },
"features": [
{ "type": "Feature", "properties": { "id": 191652335, "name": "Якутск" }, "geometry": { "type": "Point", "coordinates": [ 129.731978700000013, 62.0274078 ] } },
{ "type": "Feature", "properties": { "id": 280067854, "name": "Чульман" }, "geometry": { "type": "Point", "coordinates": [ 124.904716, 56.840408 ] } },
{ "type": "Feature", "properties": { "id": 280078404, "name": "Томмот" }, "geometry": { "type": "Point", "coordinates": [ 126.266853, 58.968536 ] } },
{ "type": "Feature", "properties": { "id": 280109123, "name": "Амга" }, "geometry": { "type": "Point", "coordinates": [ 131.97998, 60.894218 ] } },
{ "type": "Feature", "properties": { "id": 280183184, "name": "Усть-Нера" }, "geometry": { "type": "Point", "coordinates": [ 143.237839, 64.566376 ] } },
{ "type": "Feature", "properties": { "id": 282596576, "name": "Нижний Бестях" }, "geometry": { "type": "Point", "coordinates": [ 129.911346, 61.957066 ] } },
{ "type": "Feature", "properties": { "id": 286554085, "name": "Покровск" }, "geometry": { "type": "Point", "coordinates": [ 129.1540617, 61.48327 ] } },
{ "type": "Feature", "properties": { "id": 301639437, "name": "Ленск" }, "geometry": { "type": "Point", "coordinates": [ 114.9172123, 60.7145488 ] } },
{ "type": "Feature", "properties": { "id": 301761027, "name": "Мирный" }, "geometry": { "type": "Point", "coordinates": [ 113.978516, 62.5410457 ] } },
{ "type": "Feature", "properties": { "id": 301770161, "name": "Удачный" }, "geometry": { "type": "Point", "coordinates": [ 112.2517294, 66.411768 ] } },
{ "type": "Feature", "properties": { "id": 301775279, "name": "Нюрба" }, "geometry": { "type": "Point", "coordinates": [ 118.354149, 63.286648 ] } },
{ "type": "Feature", "properties": { "id": 301778109, "name": "Вилюйск" }, "geometry": { "type": "Point", "coordinates": [ 121.626549, 63.754082 ] } },
{ "type": "Feature", "properties": { "id": 301789452, "name": "Айхал" }, "geometry": { "type": "Point", "coordinates": [ 111.4917562, 65.9516363 ] } },
{ "type": "Feature", "properties": { "id": 301822109, "name": "Бердигестях" }, "geometry": { "type": "Point", "coordinates": [ 126.699837, 62.098289 ] } },
{ "type": "Feature", "properties": { "id": 301959493, "name": "Олёкминск" }, "geometry": { "type": "Point", "coordinates": [ 120.403496, 60.3729364 ] } },
{ "type": "Feature", "properties": { "id": 302066783, "name": "Сунтар" }, "geometry": { "type": "Point", "coordinates": [ 117.646332, 62.157455 ] } },
{ "type": "Feature", "properties": { "id": 302394449, "name": "Пеледуй" }, "geometry": { "type": "Point", "coordinates": [ 112.750214, 59.625267 ] } },
{ "type": "Feature", "properties": { "id": 302605557, "name": "Верхоянск" }, "geometry": { "type": "Point", "coordinates": [ 133.387461800000011, 67.5495068 ] } },
{ "type": "Feature", "properties": { "id": 302878865, "name": "Намцы" }, "geometry": { "type": "Point", "coordinates": [ 129.664246, 62.718227 ] } },
{ "type": "Feature", "properties": { "id": 304552309, "name": "Чокурдах" }, "geometry": { "type": "Point", "coordinates": [ 147.900949700000012, 70.6188643 ] } },
{ "type": "Feature", "properties": { "id": 335978670, "name": "Верхневилюйск" }, "geometry": { "type": "Point", "coordinates": [ 120.3146678, 63.4497609 ] } },
{ "type": "Feature", "properties": { "id": 335978691, "name": "Сангар" }, "geometry": { "type": "Point", "coordinates": [ 127.466759, 63.923618 ] } },
{ "type": "Feature", "properties": { "id": 413805673, "name": "Усть-Мая" }, "geometry": { "type": "Point", "coordinates": [ 134.5373573, 60.4135045 ] } },
{ "type": "Feature", "properties": { "id": 432815845, "name": "Светлый" }, "geometry": { "type": "Point", "coordinates": [ 113.4263878, 63.0502417 ] } },
{ "type": "Feature", "properties": { "id": 436918452, "name": "Хандыга" }, "geometry": { "type": "Point", "coordinates": [ 135.5750942, 62.6477939 ] } },
{ "type": "Feature", "properties": { "id": 440614116, "name": "Зырянка" }, "geometry": { "type": "Point", "coordinates": [ 150.893326, 65.733597 ] } },
{ "type": "Feature", "properties": { "id": 444271257, "name": "Батагай" }, "geometry": { "type": "Point", "coordinates": [ 134.635071, 67.654907 ] } },
{ "type": "Feature", "properties": { "id": 457263234, "name": "Черский" }, "geometry": { "type": "Point", "coordinates": [ 161.330040700000012, 68.7521775 ] } },
{ "type": "Feature", "properties": { "id": 624020909, "name": "Жатай" }, "geometry": { "type": "Point", "coordinates": [ 129.843109, 62.164104 ] } },
{ "type": "Feature", "properties": { "id": 631462618, "name": "Мохсоголлох" }, "geometry": { "type": "Point", "coordinates": [ 128.947861, 61.397861 ] } },
{ "type": "Feature", "properties": { "id": 1028723871, "name": "Борогонцы" }, "geometry": { "type": "Point", "coordinates": [ 131.166061, 62.670792 ] } },
{ "type": "Feature", "properties": { "id": 1028724019, "name": "Чурапча" }, "geometry": { "type": "Point", "coordinates": [ 132.425201, 61.999668 ] } },
{ "type": "Feature", "properties": { "id": 1028724296, "name": "Ытык-Кюёль" }, "geometry": { "type": "Point", "coordinates": [ 133.563309, 62.360935 ] } },
{ "type": "Feature", "properties": { "id": 1049441889, "name": "Белая Гора" }, "geometry": { "type": "Point", "coordinates": [ 146.187286, 68.53701 ] } },
{ "type": "Feature", "properties": { "id": 1217884720, "name": "Среднеколымск" }, "geometry": { "type": "Point", "coordinates": [ 153.7071456, 67.455497 ] } },
{ "type": "Feature", "properties": { "id": 1625195915, "name": "Нерюнгри" }, "geometry": { "type": "Point", "coordinates": [ 124.7123042, 56.6579435 ] } },
{ "type": "Feature", "properties": { "id": 2071063097, "name": "Алдан" }, "geometry": { "type": "Point", "coordinates": [ 125.388222, 58.608414 ] } },
{ "type": "Feature", "properties": { "id": 2077124058, "name": "Депутатский" }, "geometry": { "type": "Point", "coordinates": [ 139.9468635, 69.3396494 ] } },
{ "type": "Feature", "properties": { "id": 2414002280, "name": "Тикси" }, "geometry": { "type": "Point", "coordinates": [ 128.868251, 71.6366294 ] } },
{ "type": "Feature", "properties": { "id": 2559814235, "name": "Нижний Куранах" }, "geometry": { "type": "Point", "coordinates": [ 125.529327, 58.819115 ] } }
]
}
