{
"type": "FeatureCollection",
"crs": { "type": "name", "properties": { "name": "urn:ogc:def:crs:OGC:1.3:CRS84" } },
"features": [
{ "type": "Feature", "properties": { "id": 27503886, "name": "Владивосток" }, "geometry": { "type": "Point", "coordinates": [ 131.8855768, 43.1150678 ] } },
{ "type": "Feature", "properties": { "id": 191850710, "name": "Находка" }, "geometry": { "type": "Point", "coordinates": [ 132.8926, 42.8246489 ] } },
{ "type": "Feature", "properties": { "id": 191864581, "name": "Уссурийск" }, "geometry": { "type": "Point", "coordinates": [ 131.9520752, 43.7972447 ] } },
{ "type": "Feature", "properties": { "id": 191911296, "name": "Артём" }, "geometry": { "type": "Point", "coordinates": [ 132.1800977, 43.3529909 ] } },
{ "type": "Feature", "properties": { "id": 277007085, "name": "Лучегорск" }, "geometry": { "type": "Point", "coordinates": [ 134.3006729, 46.4443195 ] } },
{ "type": "Feature", "properties": { "id": 277057968, "name": "Дальнереченск" }, "geometry": { "type": "Point", "coordinates": [ 133.7349056, 45.9337195 ] } },
{ "type": "Feature", "properties": { "id": 412248593, "name": "Пограничный" }, "geometry": { "type": "Point", "coordinates": [ 131.382506, 44.4031151 ] } },
{ "type": "Feature", "properties": { "id": 467758650, "name": "Ольга" }, "geometry": { "type": "Point", "coordinates": [ 135.2901676, 43.7461009 ] } },
{ "type": "Feature", "properties": { "id": 469152074, "name": "Новопокровка" }, "geometry": { "type": "Point", "coordinates": [ 134.5005526, 45.8518226 ] } },
{ "type": "Feature", "properties": { "id": 472574443, "name": "Кавалерово" }, "geometry": { "type": "Point", "coordinates": [ 135.055497699999989, 44.2673637 ] } },
{ "type": "Feature", "properties": { "id": 472597489, "name": "Дальнегорск" }, "geometry": { "type": "Point", "coordinates": [ 135.5759241, 44.559457 ] } },
{ "type": "Feature", "properties": { "id": 494081798, "name": "Смоляниново" }, "geometry": { "type": "Point", "coordinates": [ 132.456375799999989, 43.2874945 ] } },
{ "type": "Feature", "properties": { "id": 494081803, "name": "Шкотово" }, "geometry": { "type": "Point", "coordinates": [ 132.360091, 43.3209601 ] } },
{ "type": "Feature", "properties": { "id": 615117745, "name": "Липовцы" }, "geometry": { "type": "Point", "coordinates": [ 131.723734799999988, 44.2002471 ] } },
{ "type": "Feature", "properties": { "id": 695107367, "name": "Фокино" }, "geometry": { "type": "Point", "coordinates": [ 132.404905, 42.9772084 ] } },
{ "type": "Feature", "properties": { "id": 775688857, "name": "Михайловка" }, "geometry": { "type": "Point", "coordinates": [ 132.003314499999988, 43.9370245 ] } },
{ "type": "Feature", "properties": { "id": 783686291, "name": "Пластун" }, "geometry": { "type": "Point", "coordinates": [ 136.286381, 44.7589818 ] } },
{ "type": "Feature", "properties": { "id": 783692798, "name": "Терней" }, "geometry": { "type": "Point", "coordinates": [ 136.613729299999989, 45.0504046 ] } },
{ "type": "Feature", "properties": { "id": 821038874, "name": "Партизанск" }, "geometry": { "type": "Point", "coordinates": [ 133.1433137, 43.1406647 ] } },
{ "type": "Feature", "properties": { "id": 967688763, "name": "Кировский" }, "geometry": { "type": "Point", "coordinates": [ 133.506202699999989, 45.0897627 ] } },
{ "type": "Feature", "properties": { "id": 978627022, "name": "Хороль" }, "geometry": { "type": "Point", "coordinates": [ 132.0816616, 44.4252585 ] } },
{ "type": "Feature", "properties": { "id": 1028723881, "name": "Камень-Рыболов" }, "geometry": { "type": "Point", "coordinates": [ 132.0467903, 44.7421984 ] } },
{ "type": "Feature", "properties": { "id": 1028724150, "name": "Лесозаводск" }, "geometry": { "type": "Point", "coordinates": [ 133.4047457, 45.4653394 ] } },
{ "type": "Feature", "properties": { "id": 1028724304, "name": "Покровка" }, "geometry": { "type": "Point", "coordinates": [ 131.632963499999988, 43.9524657 ] } },
{ "type": "Feature", "properties": { "id": 1042222644, "name": "Новошахтинский" }, "geometry": { "type": "Point", "coordinates": [ 132.167830400000014, 44.0262581 ] } },
{ "type": "Feature", "properties": { "id": 1055662126, "name": "Вольно-Надеждинское" }, "geometry": { "type": "Point", "coordinates": [ 131.9933355, 43.3709905 ] } },
{ "type": "Feature", "properties": { "id": 1076354382, "name": "Яковлевка" }, "geometry": { "type": "Point", "coordinates": [ 133.4743, 44.4263 ] } },
{ "type": "Feature", "properties": { "id": 1076441937, "name": "Спасск-Дальний" }, "geometry": { "type": "Point", "coordinates": [ 132.815701, 44.5980135 ] } },
{ "type": "Feature", "properties": { "id": 1076537444, "name": "Чугуевка" }, "geometry": { "type": "Point", "coordinates": [ 133.8729678, 44.1686667 ] } },
{ "type": "Feature", "properties": { "id": 1078579692, "name": "Арсеньев" }, "geometry": { "type": "Point", "coordinates": [ 133.270425499999988, 44.1644451 ] } },
{ "type": "Feature", "properties": { "id": 1080083182, "name": "Черниговка" }, "geometry": { "type": "Point", "coordinates": [ 132.569507499999986, 44.3400202 ] } },
{ "type": "Feature", "properties": { "id": 1111453938, "name": "Горные Ключи" }, "geometry": { "type": "Point", "coordinates": [ 133.5011993, 45.2435221 ] } },
{ "type": "Feature", "properties": { "id": 1215862324, "name": "Владимиро-Александровское" }, "geometry": { "type": "Point", "coordinates": [ 133.0782462, 42.8922366 ] } },
{ "type": "Feature", "properties": { "id": 1241573053, "name": "Дунай" }, "geometry": { "type": "Point", "coordinates": [ 132.3585843, 42.8841116 ] } },
{ "type": "Feature", "properties": { "id": 1345473951, "name": "Славянка" }, "geometry": { "type": "Point", "coordinates": [ 131.3924115, 42.8606833 ] } },
{ "type": "Feature", "properties": { "id": 1350262677, "name": "Зарубино" }, "geometry": { "type": "Point", "coordinates": [ 131.0617019, 42.650555 ] } },
{ "type": "Feature", "properties": { "id": 1351173160, "name": "Восток" }, "geometry": { "type": "Point", "coordinates": [ 135.8298609, 46.4481609 ] } },
{ "type": "Feature", "properties": { "id": 1353021692, "name": "Преображение" }, "geometry": { "type": "Point", "coordinates": [ 133.89883660000001, 42.901529 ] } },
{ "type": "Feature", "properties": { "id": 1463882415, "name": "Большой Камень" }, "geometry": { "type": "Point", "coordinates": [ 132.3509104, 43.1121194 ] } },
{ "type": "Feature", "properties": { "id": 1583417011, "name": "Ярославский" }, "geometry": { "type": "Point", "coordinates": [ 132.228621299999986, 44.1875241 ] } },
{ "type": "Feature", "properties": { "id": 1583576251, "name": "Сибирцево" }, "geometry": { "type": "Point", "coordinates": [ 132.4457472, 44.2033945 ] } },
{ "type": "Feature", "properties": { "id": 1842171771, "name": "Раздольное" }, "geometry": { "type": "Point", "coordinates": [ 131.9019264, 43.5481737 ] } },
{ "type": "Feature", "properties": { "id": 2575215164, "name": "Трудовое" }, "geometry": { "type": "Point", "coordinates": [ 132.0621368, 43.2986286 ] } }
]
}
