{
"type": "FeatureCollection",
"crs": { "type": "name", "properties": { "name": "urn:ogc:def:crs:OGC:1.3:CRS84" } },
"features": [
{ "type": "Feature", "properties": { "id": 191736988, "name": "Анадырь" }, "geometry": { "type": "Point", "coordinates": [ 177.5060925, 64.7316875 ] } },
{ "type": "Feature", "properties": { "id": 457244467, "name": "Билибино" }, "geometry": { "type": "Point", "coordinates": [ 166.4448515, 68.0550305 ] } },
{ "type": "Feature", "properties": { "id": 457274206, "name": "Певек" }, "geometry": { "type": "Point", "coordinates": [ 170.2746851, 69.7028171 ] } },
{ "type": "Feature", "properties": { "id": 527802328, "name": "Лаврентия" }, "geometry": { "type": "Point", "coordinates": [ -171.005811, 65.5837793 ] } },
{ "type": "Feature", "properties": { "id": 1575069719, "name": "Провидения" }, "geometry": { "type": "Point", "coordinates": [ -173.2273726, 64.4237364 ] } }
]
}
