{
"type": "FeatureCollection",
"crs": { "type": "name", "properties": { "name": "urn:ogc:def:crs:OGC:1.3:CRS84" } },
"features": [
{ "type": "Feature", "properties": { "id": 34389205, "name": "Дубна" }, "geometry": { "type": "Point", "coordinates": [ 37.1623696, 56.7362705 ] } },
{ "type": "Feature", "properties": { "id": 82452220, "name": "Клин" }, "geometry": { "type": "Point", "coordinates": [ 36.7351318, 56.3355601 ] } },
{ "type": "Feature", "properties": { "id": 93384125, "name": "Дмитров" }, "geometry": { "type": "Point", "coordinates": [ 37.5200723, 56.3450695 ] } },
{ "type": "Feature", "properties": { "id": 93384127, "name": "Талдом" }, "geometry": { "type": "Point", "coordinates": [ 37.528016, 56.730941 ] } },
{ "type": "Feature", "properties": { "id": 140594314, "name": "Волоколамск" }, "geometry": { "type": "Point", "coordinates": [ 35.9583358, 56.0360129 ] } },
{ "type": "Feature", "properties": { "id": 143561186, "name": "Долгопрудный" }, "geometry": { "type": "Point", "coordinates": [ 37.5142417, 55.9341491 ] } },
{ "type": "Feature", "properties": { "id": 143564891, "name": "Химки" }, "geometry": { "type": "Point", "coordinates": [ 37.4396994, 55.8917293 ] } },
{ "type": "Feature", "properties": { "id": 156159426, "name": "Павловский Посад" }, "geometry": { "type": "Point", "coordinates": [ 38.6507838, 55.7813357 ] } },
{ "type": "Feature", "properties": { "id": 156167469, "name": "Электросталь" }, "geometry": { "type": "Point", "coordinates": [ 38.4449485, 55.784515 ] } },
{ "type": "Feature", "properties": { "id": 156167485, "name": "Ногинск" }, "geometry": { "type": "Point", "coordinates": [ 38.4411898, 55.8553511 ] } },
{ "type": "Feature", "properties": { "id": 191849717, "name": "Королёв" }, "geometry": { "type": "Point", "coordinates": [ 37.8150443, 55.9190049 ] } },
{ "type": "Feature", "properties": { "id": 191858851, "name": "Люберцы" }, "geometry": { "type": "Point", "coordinates": [ 37.89377, 55.6783142 ] } },
{ "type": "Feature", "properties": { "id": 191867420, "name": "Коломна" }, "geometry": { "type": "Point", "coordinates": [ 38.7670121, 55.0938743 ] } },
{ "type": "Feature", "properties": { "id": 191871925, "name": "Одинцово" }, "geometry": { "type": "Point", "coordinates": [ 37.2668096, 55.678223 ] } },
{ "type": "Feature", "properties": { "id": 191880180, "name": "Серпухов" }, "geometry": { "type": "Point", "coordinates": [ 37.4195533, 54.9155247 ] } },
{ "type": "Feature", "properties": { "id": 191885615, "name": "Орехово-Зуево" }, "geometry": { "type": "Point", "coordinates": [ 38.9810423, 55.8062175 ] } },
{ "type": "Feature", "properties": { "id": 191892583, "name": "Сергиев Посад" }, "geometry": { "type": "Point", "coordinates": [ 38.1359898, 56.3153284 ] } },
{ "type": "Feature", "properties": { "id": 191913805, "name": "Жуковский" }, "geometry": { "type": "Point", "coordinates": [ 38.1199863, 55.5972801 ] } },
{ "type": "Feature", "properties": { "id": 252546931, "name": "Ликино-Дулёво" }, "geometry": { "type": "Point", "coordinates": [ 38.9569091, 55.7043101 ] } },
{ "type": "Feature", "properties": { "id": 253016504, "name": "Егорьевск" }, "geometry": { "type": "Point", "coordinates": [ 39.0356223, 55.3829765 ] } },
{ "type": "Feature", "properties": { "id": 253331857, "name": "Голицыно" }, "geometry": { "type": "Point", "coordinates": [ 36.9887625, 55.6149602 ] } },
{ "type": "Feature", "properties": { "id": 253338946, "name": "Можайск" }, "geometry": { "type": "Point", "coordinates": [ 36.0213092, 55.506478 ] } },
{ "type": "Feature", "properties": { "id": 253338948, "name": "Тучково" }, "geometry": { "type": "Point", "coordinates": [ 36.4662973, 55.6014428 ] } },
{ "type": "Feature", "properties": { "id": 253338949, "name": "Кубинка" }, "geometry": { "type": "Point", "coordinates": [ 36.6952802, 55.5755486 ] } },
{ "type": "Feature", "properties": { "id": 253338950, "name": "Звенигород" }, "geometry": { "type": "Point", "coordinates": [ 36.8585382, 55.7293613 ] } },
{ "type": "Feature", "properties": { "id": 253338954, "name": "Большие Вязёмы" }, "geometry": { "type": "Point", "coordinates": [ 37.0110986, 55.6321572 ] } },
{ "type": "Feature", "properties": { "id": 253438546, "name": "Красногорск" }, "geometry": { "type": "Point", "coordinates": [ 37.3196942, 55.8204707 ] } },
{ "type": "Feature", "properties": { "id": 253438581, "name": "Нахабино" }, "geometry": { "type": "Point", "coordinates": [ 37.1770987, 55.8394789 ] } },
{ "type": "Feature", "properties": { "id": 253438739, "name": "Истра" }, "geometry": { "type": "Point", "coordinates": [ 36.8595482, 55.9145993 ] } },
{ "type": "Feature", "properties": { "id": 253732932, "name": "Бронницы" }, "geometry": { "type": "Point", "coordinates": [ 38.2591, 55.422 ] } },
{ "type": "Feature", "properties": { "id": 255184479, "name": "Хотьково" }, "geometry": { "type": "Point", "coordinates": [ 37.9780219, 56.2516797 ] } },
{ "type": "Feature", "properties": { "id": 256361815, "name": "Шаховская" }, "geometry": { "type": "Point", "coordinates": [ 35.5102036, 56.031464 ] } },
{ "type": "Feature", "properties": { "id": 256361832, "name": "Домодедово" }, "geometry": { "type": "Point", "coordinates": [ 37.7680693, 55.4368213 ] } },
{ "type": "Feature", "properties": { "id": 256361842, "name": "Видное" }, "geometry": { "type": "Point", "coordinates": [ 37.7087142, 55.5571496 ] } },
{ "type": "Feature", "properties": { "id": 256361843, "name": "Раменское" }, "geometry": { "type": "Point", "coordinates": [ 38.2282099, 55.5709361 ] } },
{ "type": "Feature", "properties": { "id": 256361844, "name": "Монино" }, "geometry": { "type": "Point", "coordinates": [ 38.1967476, 55.841371 ] } },
{ "type": "Feature", "properties": { "id": 256361845, "name": "Старая Купавна" }, "geometry": { "type": "Point", "coordinates": [ 38.1774172, 55.8070323 ] } },
{ "type": "Feature", "properties": { "id": 256361846, "name": "Реутов" }, "geometry": { "type": "Point", "coordinates": [ 37.856555, 55.7622453 ] } },
{ "type": "Feature", "properties": { "id": 256361847, "name": "Электрогорск" }, "geometry": { "type": "Point", "coordinates": [ 38.7858721, 55.8792983 ] } },
{ "type": "Feature", "properties": { "id": 256361848, "name": "Дрезна" }, "geometry": { "type": "Point", "coordinates": [ 38.8491341, 55.7448093 ] } },
{ "type": "Feature", "properties": { "id": 256361850, "name": "Шатура" }, "geometry": { "type": "Point", "coordinates": [ 39.5437584, 55.578403 ] } },
{ "type": "Feature", "properties": { "id": 256361855, "name": "Фряново" }, "geometry": { "type": "Point", "coordinates": [ 38.4454114, 56.1345496 ] } },
{ "type": "Feature", "properties": { "id": 256361856, "name": "Черноголовка" }, "geometry": { "type": "Point", "coordinates": [ 38.3835224, 56.0061165 ] } },
{ "type": "Feature", "properties": { "id": 256361857, "name": "Софрино" }, "geometry": { "type": "Point", "coordinates": [ 37.9305867, 56.137427 ] } },
{ "type": "Feature", "properties": { "id": 256361858, "name": "Красноармейск" }, "geometry": { "type": "Point", "coordinates": [ 38.1457655, 56.1210895 ] } },
{ "type": "Feature", "properties": { "id": 256361859, "name": "Запрудня" }, "geometry": { "type": "Point", "coordinates": [ 37.4323, 56.561 ] } },
{ "type": "Feature", "properties": { "id": 256361860, "name": "Вербилки" }, "geometry": { "type": "Point", "coordinates": [ 37.6003039, 56.5268495 ] } },
{ "type": "Feature", "properties": { "id": 256361864, "name": "Яхрома" }, "geometry": { "type": "Point", "coordinates": [ 37.4838441, 56.289936 ] } },
{ "type": "Feature", "properties": { "id": 256361865, "name": "Руза" }, "geometry": { "type": "Point", "coordinates": [ 36.1946992, 55.6998907 ] } },
{ "type": "Feature", "properties": { "id": 256361867, "name": "Верея" }, "geometry": { "type": "Point", "coordinates": [ 36.185145, 55.343238 ] } },
{ "type": "Feature", "properties": { "id": 256361869, "name": "Ступино" }, "geometry": { "type": "Point", "coordinates": [ 38.0772589, 54.886598 ] } },
{ "type": "Feature", "properties": { "id": 256361870, "name": "Кашира" }, "geometry": { "type": "Point", "coordinates": [ 38.1505119, 54.837449 ] } },
{ "type": "Feature", "properties": { "id": 256361871, "name": "Пущино" }, "geometry": { "type": "Point", "coordinates": [ 37.6139685, 54.8347213 ] } },
{ "type": "Feature", "properties": { "id": 256361873, "name": "Озёры" }, "geometry": { "type": "Point", "coordinates": [ 38.5598853, 54.854209 ] } },
{ "type": "Feature", "properties": { "id": 256361874, "name": "Зарайск" }, "geometry": { "type": "Point", "coordinates": [ 38.8818137, 54.7585694 ] } },
{ "type": "Feature", "properties": { "id": 256361878, "name": "Белоомут" }, "geometry": { "type": "Point", "coordinates": [ 39.339613, 54.944246 ] } },
{ "type": "Feature", "properties": { "id": 256361879, "name": "Краснозаводск" }, "geometry": { "type": "Point", "coordinates": [ 38.244339, 56.440507 ] } },
{ "type": "Feature", "properties": { "id": 256361882, "name": "Лотошино" }, "geometry": { "type": "Point", "coordinates": [ 35.6399029, 56.228891 ] } },
{ "type": "Feature", "properties": { "id": 256361884, "name": "Пушкино" }, "geometry": { "type": "Point", "coordinates": [ 37.8461892, 56.0104274 ] } },
{ "type": "Feature", "properties": { "id": 256361885, "name": "Деденёво" }, "geometry": { "type": "Point", "coordinates": [ 37.520368, 56.242253 ] } },
{ "type": "Feature", "properties": { "id": 256361886, "name": "Пересвет" }, "geometry": { "type": "Point", "coordinates": [ 38.1736347, 56.4158101 ] } },
{ "type": "Feature", "properties": { "id": 256361887, "name": "Электроугли" }, "geometry": { "type": "Point", "coordinates": [ 38.2228192, 55.7184467 ] } },
{ "type": "Feature", "properties": { "id": 256361889, "name": "Лосино-Петровский" }, "geometry": { "type": "Point", "coordinates": [ 38.2032701, 55.8705593 ] } },
{ "type": "Feature", "properties": { "id": 256361890, "name": "Ивантеевка" }, "geometry": { "type": "Point", "coordinates": [ 37.9200739, 55.9714098 ] } },
{ "type": "Feature", "properties": { "id": 258828718, "name": "Дзержинский" }, "geometry": { "type": "Point", "coordinates": [ 37.8496653, 55.6309186 ] } },
{ "type": "Feature", "properties": { "id": 258834478, "name": "Лыткарино" }, "geometry": { "type": "Point", "coordinates": [ 37.9080217, 55.5822477 ] } },
{ "type": "Feature", "properties": { "id": 265998757, "name": "Малаховка" }, "geometry": { "type": "Point", "coordinates": [ 38.0042385, 55.6452616 ] } },
{ "type": "Feature", "properties": { "id": 266034277, "name": "Родники" }, "geometry": { "type": "Point", "coordinates": [ 38.0628479, 55.6524418 ] } },
{ "type": "Feature", "properties": { "id": 267102723, "name": "Красково" }, "geometry": { "type": "Point", "coordinates": [ 37.9798073, 55.6587214 ] } },
{ "type": "Feature", "properties": { "id": 270420987, "name": "Наро-Фоминск" }, "geometry": { "type": "Point", "coordinates": [ 36.723507, 55.3842784 ] } },
{ "type": "Feature", "properties": { "id": 271172616, "name": "Томилино" }, "geometry": { "type": "Point", "coordinates": [ 37.9464009, 55.6533898 ] } },
{ "type": "Feature", "properties": { "id": 271231306, "name": "Чехов" }, "geometry": { "type": "Point", "coordinates": [ 37.4545328, 55.1426603 ] } },
{ "type": "Feature", "properties": { "id": 301337780, "name": "Удельная" }, "geometry": { "type": "Point", "coordinates": [ 38.0448181, 55.6359979 ] } },
{ "type": "Feature", "properties": { "id": 306174317, "name": "Менделеево" }, "geometry": { "type": "Point", "coordinates": [ 37.2333009, 56.036856 ] } },
{ "type": "Feature", "properties": { "id": 306545784, "name": "Серебряные Пруды" }, "geometry": { "type": "Point", "coordinates": [ 38.7223679, 54.4679803 ] } },
{ "type": "Feature", "properties": { "id": 317470882, "name": "Октябрьский" }, "geometry": { "type": "Point", "coordinates": [ 37.9743705, 55.6086034 ] } },
{ "type": "Feature", "properties": { "id": 336306070, "name": "имени Воровского" }, "geometry": { "type": "Point", "coordinates": [ 38.3392843, 55.7246871 ] } },
{ "type": "Feature", "properties": { "id": 336306171, "name": "Столбовая" }, "geometry": { "type": "Point", "coordinates": [ 37.4853088, 55.2559038 ] } },
{ "type": "Feature", "properties": { "id": 353351092, "name": "Богородское" }, "geometry": { "type": "Point", "coordinates": [ 38.1825572, 56.4939062 ] } },
{ "type": "Feature", "properties": { "id": 355911643, "name": "Апрелевка" }, "geometry": { "type": "Point", "coordinates": [ 37.0730417, 55.5454306 ] } },
{ "type": "Feature", "properties": { "id": 356482990, "name": "Поварово" }, "geometry": { "type": "Point", "coordinates": [ 37.0542886, 56.0758541 ] } },
{ "type": "Feature", "properties": { "id": 356482994, "name": "Некрасовский" }, "geometry": { "type": "Point", "coordinates": [ 37.4993722, 56.0952846 ] } },
{ "type": "Feature", "properties": { "id": 359535254, "name": "Балашиха" }, "geometry": { "type": "Point", "coordinates": [ 37.9373707, 55.7997662 ] } },
{ "type": "Feature", "properties": { "id": 360001008, "name": "Черкизово" }, "geometry": { "type": "Point", "coordinates": [ 37.7804331, 55.9693329 ] } },
{ "type": "Feature", "properties": { "id": 360001019, "name": "Свердловский" }, "geometry": { "type": "Point", "coordinates": [ 38.1397082, 55.9016773 ] } },
{ "type": "Feature", "properties": { "id": 360001037, "name": "Правдинский" }, "geometry": { "type": "Point", "coordinates": [ 37.8587959, 56.0630281 ] } },
{ "type": "Feature", "properties": { "id": 360001120, "name": "Развилка" }, "geometry": { "type": "Point", "coordinates": [ 37.750278, 55.590278 ] } },
{ "type": "Feature", "properties": { "id": 360001149, "name": "Мытищи" }, "geometry": { "type": "Point", "coordinates": [ 37.7339358, 55.9094928 ] } },
{ "type": "Feature", "properties": { "id": 360001189, "name": "Котельники" }, "geometry": { "type": "Point", "coordinates": [ 37.8673073, 55.661668 ] } },
{ "type": "Feature", "properties": { "id": 360001219, "name": "Лесной Городок" }, "geometry": { "type": "Point", "coordinates": [ 37.2068966, 55.6402275 ] } },
{ "type": "Feature", "properties": { "id": 360001275, "name": "Ильинский" }, "geometry": { "type": "Point", "coordinates": [ 38.1002947, 55.6180826 ] } },
{ "type": "Feature", "properties": { "id": 360001289, "name": "Власиха" }, "geometry": { "type": "Point", "coordinates": [ 37.1919786, 55.6838591 ] } },
{ "type": "Feature", "properties": { "id": 360001361, "name": "Заречье" }, "geometry": { "type": "Point", "coordinates": [ 37.3955454, 55.68776 ] } },
{ "type": "Feature", "properties": { "id": 360001650, "name": "Андреевка" }, "geometry": { "type": "Point", "coordinates": [ 37.1410528, 55.9796932 ] } },
{ "type": "Feature", "properties": { "id": 360001895, "name": "Подольск" }, "geometry": { "type": "Point", "coordinates": [ 37.5453056, 55.4308841 ] } },
{ "type": "Feature", "properties": { "id": 360002125, "name": "Быково" }, "geometry": { "type": "Point", "coordinates": [ 38.0761816, 55.6311596 ] } },
{ "type": "Feature", "properties": { "id": 360002370, "name": "Загорянский" }, "geometry": { "type": "Point", "coordinates": [ 37.9155811, 55.9211678 ] } },
{ "type": "Feature", "properties": { "id": 412275359, "name": "Селятино" }, "geometry": { "type": "Point", "coordinates": [ 36.98217, 55.51537 ] } },
{ "type": "Feature", "properties": { "id": 419841537, "name": "Белоозёрский" }, "geometry": { "type": "Point", "coordinates": [ 38.4389885, 55.4595029 ] } },
{ "type": "Feature", "properties": { "id": 428048526, "name": "Краснознаменск" }, "geometry": { "type": "Point", "coordinates": [ 37.0395057, 55.5971787 ] } },
{ "type": "Feature", "properties": { "id": 462089127, "name": "Фрязино" }, "geometry": { "type": "Point", "coordinates": [ 38.0567691, 55.954618 ] } },
{ "type": "Feature", "properties": { "id": 462665583, "name": "Ашукино" }, "geometry": { "type": "Point", "coordinates": [ 37.9456756, 56.163552 ] } },
{ "type": "Feature", "properties": { "id": 463158064, "name": "Скоропусковский" }, "geometry": { "type": "Point", "coordinates": [ 38.1404483, 56.3670506 ] } },
{ "type": "Feature", "properties": { "id": 534803361, "name": "Лобня" }, "geometry": { "type": "Point", "coordinates": [ 37.4670831, 56.0104473 ] } },
{ "type": "Feature", "properties": { "id": 674344670, "name": "Новый Городок" }, "geometry": { "type": "Point", "coordinates": [ 36.6207686, 55.6115778 ] } },
{ "type": "Feature", "properties": { "id": 703595970, "name": "Новосиньково" }, "geometry": { "type": "Point", "coordinates": [ 37.3288391, 56.3752679 ] } },
{ "type": "Feature", "properties": { "id": 705202022, "name": "Авсюнино" }, "geometry": { "type": "Point", "coordinates": [ 39.1163329, 55.5629567 ] } },
{ "type": "Feature", "properties": { "id": 764019333, "name": "Куровское" }, "geometry": { "type": "Point", "coordinates": [ 38.9225824, 55.5771391 ] } },
{ "type": "Feature", "properties": { "id": 804613513, "name": "Большие Дворы" }, "geometry": { "type": "Point", "coordinates": [ 38.6514818, 55.8128481 ] } },
{ "type": "Feature", "properties": { "id": 821630088, "name": "Звёздный городок" }, "geometry": { "type": "Point", "coordinates": [ 38.1130637, 55.8774221 ] } },
{ "type": "Feature", "properties": { "id": 912443593, "name": "Дедовск" }, "geometry": { "type": "Point", "coordinates": [ 37.1206449, 55.8597808 ] } },
{ "type": "Feature", "properties": { "id": 922694649, "name": "Солнечногорск" }, "geometry": { "type": "Point", "coordinates": [ 36.9781536, 56.1853501 ] } },
{ "type": "Feature", "properties": { "id": 1232532621, "name": "Обухово" }, "geometry": { "type": "Point", "coordinates": [ 38.2726971, 55.8314658 ] } },
{ "type": "Feature", "properties": { "id": 1356970892, "name": "Новое Ступино" }, "geometry": { "type": "Point", "coordinates": [ 38.09348, 55.0244958 ] } },
{ "type": "Feature", "properties": { "id": 1449506096, "name": "Калининец" }, "geometry": { "type": "Point", "coordinates": [ 36.9723013, 55.5567119 ] } },
{ "type": "Feature", "properties": { "id": 1451727851, "name": "Новоивановское" }, "geometry": { "type": "Point", "coordinates": [ 37.3661605, 55.7050068 ] } },
{ "type": "Feature", "properties": { "id": 1646722305, "name": "Михнево" }, "geometry": { "type": "Point", "coordinates": [ 37.9584994, 55.1212335 ] } },
{ "type": "Feature", "properties": { "id": 1684082165, "name": "Щёлково" }, "geometry": { "type": "Point", "coordinates": [ 37.9915576, 55.9206499 ] } },
{ "type": "Feature", "properties": { "id": 1798809766, "name": "Протвино" }, "geometry": { "type": "Point", "coordinates": [ 37.2188629, 54.8707703 ] } },
{ "type": "Feature", "properties": { "id": 2095029787, "name": "Воскресенск" }, "geometry": { "type": "Point", "coordinates": [ 38.6816824, 55.322518 ] } },
{ "type": "Feature", "properties": { "id": 2379549965, "name": "Лесной" }, "geometry": { "type": "Point", "coordinates": [ 37.9277319, 56.0807652 ] } },
{ "type": "Feature", "properties": { "id": 2717017619, "name": "Высоковск" }, "geometry": { "type": "Point", "coordinates": [ 36.5521708, 56.3205097 ] } },
{ "type": "Feature", "properties": { "id": 3374820757, "name": "Солнечногорск-2" }, "geometry": { "type": "Point", "coordinates": [ 37.0340628, 56.2035234 ] } },
{ "type": "Feature", "properties": { "id": 4559181618, "name": "Луховицы" }, "geometry": { "type": "Point", "coordinates": [ 39.0277188, 54.9655573 ] } },
{ "type": "Feature", "properties": { "id": 6051513921, "name": "Давыдово" }, "geometry": { "type": "Point", "coordinates": [ 38.8585305, 55.6078039 ] } },
{ "type": "Feature", "properties": { "id": 6051567828, "name": "Рошаль" }, "geometry": { "type": "Point", "coordinates": [ 39.8717137, 55.6583239 ] } }
]
}
